Codification;Commune;Edifice;Edifice_standard;Type_edifice;Codification_edifice;Nom_departement;Code_depertament;Nom_region;Code_insee;Commune_insee;Ancienne_commune;Adresse;Désignation;Livre;Pages_pdf;Pages_livre;Pages_livre_complement;Commentaire;Log;Site_ref;Latitude;Longitude;OSM_type;OSM_id;OSM_latitude;OSM_longitude;Orgbase_manu;Orgbase_commune;Orgbase_auto;Orgbase_desc;Orgbase_edifice;Orgbase_facteurs;Orgbase_minicompo;Orgbase_edifice_standard;Orgbase_edifice_log;Orgbase_commune_insee;Reference_palissy;denomination_palissy;Edifice_palissy;protection_palissy;Résumé;Propriétaire;Organisme;Lien de référence;Polyphone;Etat;Elévation;Buffet;Console;Commentaire admin;Diapason;Sommiers;Soufflerie;Transmission notes;Transmission commentaire;Tirage jeux;Tirage commentaire;Commentaire tuyauterie;Evènements;Accessoires;Claviers;Images;Sources;id;user;url
FR-01005-A_DOM-STMAUR1-X;Ambérieux-en-Dombes;église Saint-Maurice;Saint-Maurice;église;STMAUR;Ain;01;Auvergne-Rhône-Alpes;01005;Ambérieux-en-Dombes;;;;Ouvrage Ain;10;;;;;;45.99740400;4.90259000;;;;;;;;;;;;;;;;;;;;;;;;;;;;;;;;;;;;;[];;;;;;;
FR-01021-A_FOR-STJEAN1-X;Ars-sur-Formans;Basilique Saint-Jean-Marie Vianney;Saint-Jean-Marie-Vianney;basilique;STJEAN;Ain;01;Auvergne-Rhône-Alpes;01021;Ars-sur-Formans;;;;Ouvrage Ain;11;;;;;https://orguesdenislonde.wordpress.com/2010/11/04/seminaire-dars-sur-formans/;;;;;;;;;;;;;;;;;PM01002648;;;;;;;;;;;;;;;;;;;;;;[];;;;;;;
FR-01021-A_FOR-STJEAN2-X;Ars-sur-Formans;Séminaire Saint Jean-Marie Vianney, Chapelle;Saint-Jean-Marie-Vianney,-Chapelle;séminaire;STJEAN;Ain;01;Auvergne-Rhône-Alpes;01021;Ars-sur-Formans;;;;;;;;;;;;;;;;;http://www.orgbase.nl/scripts/ogb.exe?database=ob2&%250=2059302&LGE=FR&LIJST=lang;;;;;;;;;;;;;;;;;http://www.orgbase.nl/scripts/ogb.exe?database=ob2&%250=2059302&LGE=FR&LIJST=lang;;;;;;;;;;;;;;;[];;;;;;;
FR-01034-BELLE-STJBAP1-T;Belley;Cathédrale Saint-Jean-Baptiste;Saint-Jean-Baptiste;cathédrale;STJBAP;Ain;01;Auvergne-Rhône-Alpes;01034;Belley;;;G.O.;Ouvrage Ain;12-15;;;;;;45.75764843;5.68887345;;;;;;;;;;;;;;;PM01000539,PM01000043;;;;;;;;;;;;;;;;;;;;;;[];;;;;;;
FR-01034-BELLE-STJBAP1-C;Belley;Cathédrale Saint-Jean-Baptiste;Saint-Jean-Baptiste;cathédrale;STJBAP;Ain;01;Auvergne-Rhône-Alpes;01034;Belley;;;O.C.;Ouvrage Ain;16;;;;;;45.75764843;5.68887345;;;;;;;;;;;;;;;;;;;;;;;;;;;;;;;;;;;;;[];;;;;;;
FR-01034-BELLE-LAMART1-X;Belley;Chapelle de l'Institution Lamartine;Lamartine;chapelle de l'institution;LAMART;Ain;01;Auvergne-Rhône-Alpes;01034;Belley;;;;Ouvrage Ain;17;;;;;;;;;;;;;;;;;;;;;;;;;;;;;;;;;;;;;;;;;;;;[];;;;;;;
FR-01053-B_BRE-SCOEUR1-X;Bourg-en-Bresse;BASILIQUE du SACRé-Cœur;du-Sacré-Cœur;basilique;SCOEUR;Ain;01;Auvergne-Rhône-Alpes;01053;Bourg-en-Bresse;;;;Ouvrage Ain;19;;;;;;;;;;;;;;;;;;;;;;;;;;;;;;;;;;;;;;;;;;;;[];;;;;;;
FR-01053-B_BRE-NDANNO1-T;Bourg-en-Bresse;Co-Cathédrale Notre-Dame-de-l'Annonciation;Notre-Dame-de-l'Annonciation;co-cathédrale;NDANNO;Ain;01;Auvergne-Rhône-Alpes;01053;Bourg-en-Bresse;;;G.O.;Ouvrage Ain;18,20-22;;;;;;;;;;;;;;;;;;;;;;;;;;;;;;;;;;;;;;;;;;;;[];;;;;;;
FR-01053-B_BRE-NDANNO1-C;Bourg-en-Bresse;Co-Cathédrale Notre-Dame-de-l'Annonciation;Notre-Dame-de-l'Annonciation;co-cathédrale;NDANNO;Ain;01;Auvergne-Rhône-Alpes;01053;Bourg-en-Bresse;;;O.C.;Ouvrage Ain;23;;;;;;;;;;;;;;;;;;;;;;;;;;;;;;;;;;;;;;;;;;;;[];;;;;;;
FR-01093-C_CHA-MUSIQU1-X;Châtillon-sur-Chalaronne;Ecole de musique;;école de musique;MUSIQU;Ain;01;Auvergne-Rhône-Alpes;01093;Châtillon-sur-Chalaronne;;;;;;;;;;;;;;;;;/scripts/ogb.exe?database=ob2&%250=2049751&LGE=FR&LIJST=lang;;;;;;;;;;;;;;;;;/scripts/ogb.exe?database=ob2&%250=2049751&LGE=FR&LIJST=lang;;;;;;;;;;;;;;;[];;;;;;;
FR-01093-C_CHA-STANDR1-T;Châtillon-sur-Chalaronne;église Saint-André;Saint-André;église;STANDR;Ain;01;Auvergne-Rhône-Alpes;01093;Châtillon-sur-Chalaronne;;;G.O.;;;;;;;;;;;;;;/scripts/ogb.exe?database=ob2&%250=2024217&LGE=FR&LIJST=lang;;;;;;;;;;;;;;;;;/scripts/ogb.exe?database=ob2&%250=2024217&LGE=FR&LIJST=lang;;;;;;;;;;;;;;;[];;;;;;;
FR-01093-C_CHA-STANDR1-C;Châtillon-sur-Chalaronne;église Saint-André;Saint-André;église;STANDR;Ain;01;Auvergne-Rhône-Alpes;01093;Châtillon-sur-Chalaronne;;;O.C.;Ouvrage Ain;24;;;;;;;;;;;;/scripts/ogb.exe?database=ob2&%250=2024218&LGE=FR&LIJST=lang;;;;;;;;;;;;;;;;;/scripts/ogb.exe?database=ob2&%250=2024218&LGE=FR&LIJST=lang;;;;;;;;;;;;;;;[];;;;;;;
FR-01108-COLIG-STMART1-X;Coligny;église Saint-Martin;Saint-Martin;église;STMART;Ain;01;Auvergne-Rhône-Alpes;01108;Coligny;;;;Ouvrage Ain;25;;;;;;46.38397607;5.34601200;;;;;;;;;;;;;;;;;;;;;;;;;;;;;;;;;;;;;[];;;;;;;
FR-01143-D_BAI-STETIE1-X;Divonne-les-Bains;église Saint-Étienne;Saint-Étienne;église;STETIE;Ain;01;Auvergne-Rhône-Alpes;01143;Divonne-les-Bains;;;;Ouvrage Ain;26;;;;;;46.35698800;6.14327600;;;;;;;;;;;;;;;;;;;;;;;;;;;;;;;;;;;;;[];;;;;;;
FR-01160-F_VOL-TEMPLE1-X;Ferney-Voltaire;Temple;;temple;TEMPLE;Ain;01;Auvergne-Rhône-Alpes;01160;Ferney-Voltaire;;;;;;;;;;;;;;;;;/scripts/ogb.exe?database=ob2&%250=2024221&LGE=FR&LIJST=lang;;;;;;;;;;;;;;;;;/scripts/ogb.exe?database=ob2&%250=2024221&LGE=FR&LIJST=lang;;;;;;;;;;;;;;;[];;;;;;;
FR-01173-GEXXX-STPIER1-X;Gex;église Saint-Pierre;Saint-Pierre;église;STPIER;Ain;01;Auvergne-Rhône-Alpes;01173;Gex;;;;Ouvrage Ain;27;;;;;;46.33419090;6.05803600;;;;;;;;;;;;;;;;;;;;;;;;;;;;;;;;;;;;;[];;;;;;;
FR-01194-J_RIO-NDASSO1-X;Jassans-Riottier;église Notre-Dame-de-l'Assomption;Notre-Dame-de-l'Assomption;église;NDASSO;Ain;01;Auvergne-Rhône-Alpes;01194;Jassans-Riottier;;;;Ouvrage Ain;28;;;;;;45.98144160;4.75853830;;;;;;;;;;;;;;;PM01000540,PM01000249;;;;;;;;;;;;;;;;;;;;;;[];;;;;;;
FR-01235-MARLI-NDDOMB1-X;Marlieux;église Abbatiale Notre-Dame-des-Dombes;Notre-Dame-des-Dombes;église abbatiale;NDDOMB;Ain;01;Auvergne-Rhône-Alpes;01235;Marlieux;;;;Ouvrage Ain;29;;;;;;;;;;;;;;;;;;;;;;;;;;;;;;;;;;;;;;;;;;;;[];;;;;;;
FR-01262-MTLUE-NDMARA1-X;Montluel;église Notre-Dame-des-Marais;Notre-Dame-des-Marais;église;NDMARA;Ain;01;Auvergne-Rhône-Alpes;01262;Montluel;;;;Ouvrage Ain;30;;;;;;;;;;;;;;;;;;;;;;;;;;;;;;;;;;;;;;;;;;;;[];;;;;;;
FR-01269-NANTU-STMICH1-X;Nantua;église Saint-Michel;Saint-Michel;église;STMICH;Ain;01;Auvergne-Rhône-Alpes;01269;Nantua;;;;Ouvrage Ain;31-33;;;;;;46.15182070;5.60813410;;;;;;;;;;;;;;;PM01000541,PM01000288,PM01002740;;;;;;;;;;;;;;;;;;;;;;[];;;;;;;
FR-01283-OYONN-STLEGE1-X;Oyonnax;église Saint-Léger;Saint-Léger;église;STLEGE;Ain;01;Auvergne-Rhône-Alpes;01283;Oyonnax;;;;Ouvrage Ain;34;;;;;;46.25794590;5.65774370;;;;;;;;;;;;;;;;;;;;;;;;;;;;;;;;;;;;;[];;;;;;;
FR-01289-PERON-NDSEIL1-X;Péronnas;Chapelle de l'Orphelinat Notre-Dame-de-Seillon;Notre-Dame-de-Seillon;chapelle de l'orphelinat;NDSEIL;Ain;01;Auvergne-Rhône-Alpes;01289;Péronnas;;;;Ouvrage Ain;35;;;;;;;;;;;;;;;;;;;;;;;;;;;;;;;;;;;;;;;;;;;;[];;;;;;;
FR-01305-P_VAU-NDAMEV1-X;Pont-de-Vaux;Collégiale Notre-Dame;Notre-Dame;collégiale;NDAMEV;Ain;01;Auvergne-Rhône-Alpes;01305;Pont-de-Vaux;;;;Ouvrage Ain;36;;;;;;;;;;;;;;;;;;;;;;;;;;;;;;;;;;;;;;;;;;;;[];;;;;;;
FR-01344-SSBOU-STDENI1-X;Saint-Denis-lès-Bourg;église Saint-Denis;Saint-Denis;église;STDENI;Ain;01;Auvergne-Rhône-Alpes;01344;Saint-Denis-lès-Bourg;;;;Ouvrage Ain;37;;;;;;46.20167254;5.19011558;;;;;;;;;;;;;;;;;;;;;;;;;;;;;;;;;;;;;[];;;;;;;
FR-01370-SSSAO-STLAUR1-X;Saint-Laurent-sur-Saône;église Saint-Laurent;Saint-Laurent;église;STLAUR;Ain;01;Auvergne-Rhône-Alpes;01370;Saint-Laurent-sur-Saône;;;;Ouvrage Ain;38;;;;;;46.30734600;4.84095470;;;;;;;;;;;;;;;PM01000542,PM01000333;;;;;;;;;;;;;;;;;;;;;;[];;;;;;;
FR-01384-SSBUG-STRAMB1-X;Saint-Rambert-en-Bugey;église Saint-Rambert;Saint-Rambert;église;STRAMB;Ain;01;Auvergne-Rhône-Alpes;01384;Saint-Rambert-en-Bugey;;;;Ouvrage Ain;39;;;;;;45.94793420;5.43689468;;;;;;;;;;;;;;;;;;;;;;;;;;;;;;;;;;;;;[];;;;;;;
FR-01416-TENAY-STANDR1-X;Tenay;église Saint-André;Saint-André;église;STANDR;Ain;01;Auvergne-Rhône-Alpes;01416;Tenay;;;;Ouvrage Ain;40;;;;;;45.91931879;5.50884367;;;;;;;;;;;;;;;;;;;;;;;;;;;;;;;;;;;;;[];;;;;;;
FR-01427-TREVO-STSYMP1-X;Trévoux;église Saint-Symphonien;Saint-Symphonien;église;STSYMP;Ain;01;Auvergne-Rhône-Alpes;01427;Trévoux;;;;Ouvrage Ain;41;;;;;;;;;;;;;;;;;;;;;;;;;;;;;;;;;;;;;;;;;;;;[];;;;;;;
FR-01451-VIRIA-STPIER1-X;Viriat;église Saint-Pierre;Saint-Pierre;église;STPIER;Ain;01;Auvergne-Rhône-Alpes;01451;Viriat;;;;Ouvrage Ain;42;;;;;;46.25399580;5.21605080;;;;;;;;;;;;;;;;;;;;;;;;;;;;;;;;;;;;;[];;;;;;;
FR-01457-VONNA-STMART1-X;Vonnas;église Saint-Martin;Saint-Martin;église;STMART;Ain;01;Auvergne-Rhône-Alpes;01457;Vonnas;;;;Ouvrage Ain;43;;;;;;46.21911551;4.99286398;;;;;;;;;;;;;;;;;;;;;;;;;;;;;;;;;;;;;[];;;;;;;
FR-02006-A_BER-NDNATI1-X;Aisonville-et-Bernoville;église Notre-Dame de la Nativité;Notre-Dame-de-la-Nativité;église;NDNATI;Aisne;02;Hauts-de-France;02006;Aisonville-et-Bernoville;;;;Orgues de Picardie -- Aisne;14-15;déc-13;;;;;49.92920810;3.51108350;;;;;;;;;;;;;;;;;;;;;;;;;;;;;;;;;;;;;[];;;;;;;
FR-02011-AMBLE-STMART1-X;Ambleny;église Saint-Martin;Saint-Martin;église;STMART;Aisne;02;Hauts-de-France;02011;Ambleny;;;;Orgues de Picardie -- Aisne;16-17;14-15;;;;;49.38054040;3.18462920;;;;;;;;;;;;;;;;;;;;;;;;;;;;;;;;;;;;;[];;;;;;;
FR-02031-AUBEN-NDAMEV1-X;Aubenton;église Notre-Dame;Notre-Dame;église;NDAMEV;Aisne;02;Hauts-de-France;02031;Aubenton;;;;Orgues de Picardie -- Aisne;18-21;16-19;;;;;49.83625790;4.20406340;;;;;;;;;;;;;;;PM02000054,PM02000043,PM02001487;;;;;;;;;;;;;;;;;;;;;;[];;;;;;;
FR-02086-BICHA-STMART1-X;Bichancourt;église Saint-Martin;Saint-Martin;église;STMART;Aisne;02;Hauts-de-France;02086;Bichancourt;;;;Orgues de Picardie -- Aisne;22-23;20-21;;;;;49.5797809;3.2129645;;;;;;;;;;;;;;;;;;;;;;;;;;;;;;;;;;;;;[];;;;;;;
FR-02095-B_VER-NDLOUR1-X;Bohain-en-Vermandois;église Notre-Dame de Lourdes;Notre-Dame-de-Lourdes;église;NDLOUR;Aisne;02;Hauts-de-France;02095;Bohain-en-Vermandois;;;;Orgues de Picardie -- Aisne;24-26;22-24;;;;;49.9867548;3.4525583;;;;;;;;;;;;;;;;;;;;;;;;;;;;;;;;;;;;;[];;;;;;;
FR-02110-BRAIN-NDYVED1-X;Braine;église Notre-Dame & Saint-Yved;Notre-Dame-&-Saint-Yved;église;NDYVED;Aisne;02;Hauts-de-France;02110;Braine;;;;Orgues de Picardie -- Aisne;27-28;25-26;;;;;49.3396035;3.5353419;;;;;;;;;;;;;;;;;;;;;;;;;;;;;;;;;;;;;[];;;;;;;
FR-02126-BRUNE-STNICO1-X;Brunehamel;église Saint-Nicolas;Saint-Nicolas;église;STNICO;Aisne;02;Hauts-de-France;02126;Brunehamel;;;;Orgues de Picardie -- Aisne;29-30;27-28;;;;;49.7689728;4.1825992;;;;;;;;;;;;;;;;;;;;;;;;;;;;;;;;;;;;;[];;;;;;;
FR-02131-B_LON-STMART1-X;Bucy-le-Long;église Saint-Martin;Saint-Martin;église;STMART;Aisne;02;Hauts-de-France;02131;Bucy-le-Long;;;;Orgues de Picardie -- Aisne;31-33;29-31;;;;;49.394689;3.391637;;;;;;;;;;;;;;;;;;;;;;;;;;;;;;;;;;;;;[];;;;;;;
FR-02135-BUIRO-STNICO1-X;Buironfosse;église Saint-Nicolas;Saint-Nicolas;église;STNICO;Aisne;02;Hauts-de-France;02135;Buironfosse;;;;Orgues de Picardie -- Aisne;34-35;32-33;;;;;49.9663152;3.834883;;;;;;;;;;;;;;;;;;;;;;;;;;;;;;;;;;;;;[];;;;;;;
FR-02160-CHAOU-STMART1-X;Chaourse;église Saint-Martin;Saint-Martin;église;STMART;Aisne;02;Hauts-de-France;02160;Chaourse;;;;;;;;;;;49.706016;3.9993829;;;;;/scripts/ogb.exe?database=ob2&%250=2054095&LGE=FR&LIJST=lang;;;;;;;;;;;;;;;;;/scripts/ogb.exe?database=ob2&%250=2054095&LGE=FR&LIJST=lang;;;;;;;;;;;;;;;[];;;;;;;
FR-02163-C_MAR-STMART1-X;Charly-sur-Marne;église Saint-Martin;Saint-Martin;église;STMART;Aisne;02;Hauts-de-France;02163;Charly-sur-Marne;;;;Orgues de Picardie -- Aisne;36-38;34-36;;;;;48.976263;3.2849014;;;;;;;;;;;;;;;PM02001600;;;;;;;;;;;;;;;;;;;;;;[];;;;;;;
FR-02168-C_THI-STCREP1-T;Château-Thierry;église Saint-Crépin;Saint-Crépin;église;STCREP;Aisne;02;Hauts-de-France;02168;Château-Thierry;;;G.O.;Orgues de Picardie -- Aisne;39-42;37-40;;;;;49.04593390;3.40258360;;;;;;;;;;;;;;;PM02001489,PM02000220;;;;;;;;;;;;;;;;;;;;;;[];;;;;;;
FR-02168-C_THI-STCREP1-B;Château-Thierry;église Saint-Crépin;Saint-Crépin;église;STCREP;Aisne;02;Hauts-de-France;02168;Château-Thierry;;;buffet;Orgues de Picardie -- Aisne;43-43;41-41;;;;;49.04593390;3.40258360;;;;;;;;;;;;;;;;;;;;;;;;;;;;;;;;;;;;;[];;;;;;;
FR-02168-C_THI-TEMPLE1-X;Château-Thierry;Temple;;temple;TEMPLE;Aisne;02;Hauts-de-France;02168;Château-Thierry;;;;Orgues de Picardie -- Aisne;44-45;42-43;;;;;49.0458326;3.4020978;;;;;;;;;;;;;;;;;;;;;;;;;;;;;;;;;;;;;[];;;;;;;
FR-02173-CXNYY-NDAMEV1-X;Chauny;église Notre-Dame;Notre-Dame;église;NDAMEV;Aisne;02;Hauts-de-France;02173;Chauny;;;;Orgues de Picardie -- Aisne;46-48;44-46;;;;;49.61007390;3.21928410;;;;;;;;;;;;;;;;;;;;;;;;;;;;;;;;;;;;;[];;;;;;;
FR-02173-CXNYY-STMART1-X;Chauny;église Saint-Martin;Saint-Martin;église;STMART;Aisne;02;Hauts-de-France;02173;Chauny;;;;Orgues de Picardie -- Aisne;49-51;47-49;;;;;49.61506560;3.21767020;;;;;;;;;;;;;;;;;;;;;;;;;;;;;;;;;;;;;[];;;;;;;
FR-02186-C_MAR-STMART1-X;Chézy-sur-Marne;église Saint-Martin;Saint-Martin;église;STMART;Aisne;02;Hauts-de-France;02186;Chézy-sur-Marne;;;;Orgues de Picardie -- Aisne;52-53;50-51;;;;;;;;;;;;;;;;;;;;;PM02002968,PM02001491,PM02001490;;;;;;;;;;;;;;;;;;;;;;[];;;;;;;
FR-02199-CLAST-STSULP1-X;Clastres;église Saint-Sulpice;Saint-Sulpice;église;STSULP;Aisne;02;Hauts-de-France;02199;Clastres;;;;Orgues de Picardie -- Aisne;54-56;52-54;;;;;49.74601870;3.23539000;;;;;;;;;;;;;;;;;;;;;;;;;;;;;;;;;;;;;[];;;;;;;
FR-02217-C_AUF-STSAUV1-X;Coucy-le-Château-Auffrique;église Saint-Sauveur;Saint-Sauveur;église;STSAUV;Aisne;02;Hauts-de-France;02217;Coucy-le-Château-Auffrique;;;;Orgues de Picardie -- Aisne;57-57;55-55;;;;;;;;;;;;;;;;;;;;;;;;;;;;;;;;;;;;;;;;;;;[];;;;;;;
FR-02264-D_GRO-NATSVI1-X;Dizy-le-Gros;église de la Nativité de la Sainte-Vierge;Nativité-de-la-Sainte-Vierge;église;NATSVI;Aisne;02;Hauts-de-France;02264;Dizy-le-Gros;;;;Orgues de Picardie -- Aisne;58-60;56-58;;;;;49.6301527;4.0216331;;;;;;;;;;;;;;;;;;;;;;;;;;;;;;;;;;;;;[];;;;;;;
FR-02290-E_MAR-MONNEA1-X;Essômes-sur-Marne;Temple de Monneaux;de-Monneaux;temple;MONNEA;Aisne;02;Hauts-de-France;02290;Essômes-sur-Marne;;;;;;;;;;;;;;;;;/scripts/ogb.exe?database=ob2&%250=2046022&LGE=FR&LIJST=lang;;;;;;;;;;PM02001443,PM02001492;;;;;;;/scripts/ogb.exe?database=ob2&%250=2046022&LGE=FR&LIJST=lang;;;;;;;;;;;;;;;[];;;;;;;
FR-02295-ETREA-STMART1-X;Étréaupont;église Saint-Martin;Saint-Martin;église;STMART;Aisne;02;Hauts-de-France;02295;Étréaupont;;;;Orgues de Picardie -- Aisne;61-64;59-62;;;;;49.90285540;3.91457950;;;;;;;;;;;;;;;;;;;;;;;;;;;;;;;;;;;;;[];;;;;;;
FR-02298-ETREU-NATSVI1-X;Étreux;église de la Nativité de la Sainte-Vierge;Nativité-de-la-Sainte-Vierge;église;NATSVI;Aisne;02;Hauts-de-France;02298;Étreux;;;;Orgues de Picardie -- Aisne;65-66;63-64;;;;;;;;;;;;;;;;;;;;;;;;;;;;;;;;;;;;;;;;;;;[];;;;;;;
FR-02305-F_TAR-STMACR1-X;Fère-en-Tardenois;église Sainte-Macre;Sainte-Macre;église;STMACR;Aisne;02;Hauts-de-France;02305;Fère-en-Tardenois;;;;Orgues de Picardie -- Aisne;67-68;65-66;;;;;49.199836;3.513452;;;;;;;;;;;;;;;;;;;;;;;;;;;;;;;;;;;;;[];;;;;;;
FR-02339-GANDE-STREMI1-X;Gandelu;église Saint-Rémi;Saint-Rémi;église;STREMI;Aisne;02;Hauts-de-France;02339;Gandelu;;;;Orgues de Picardie -- Aisne;69-71;67-69;;;;;49.0939031;3.1846136;;;;;;;;;;;;;;;;;;;;;;;;;;;;;;;;;;;;;[];;;;;;;
FR-02361-GUISE-SSP-PL1-X;Guise;église Saint-Pierre & Saint-Paul;Saint-Pierre-&-Saint-Paul;église;SSP-PL;Aisne;02;Hauts-de-France;02361;Guise;;;;Orgues de Picardie -- Aisne;72-74;70-72;;;;;49.898591;3.6239755;;;;;;;;;;;;;;;;;;;;;;;;;;;;;;;;;;;;;[];;;;;;;
FR-02381-HIRSO-NDLOUR1-X;Hirson;église Notre-Dame de Lourdes;Notre-Dame-de-Lourdes;église;NDLOUR;Aisne;02;Hauts-de-France;02381;Hirson;;;;Orgues de Picardie -- Aisne;75-77;73-75;;;;;49.9240363;4.079199;;;;;;;;;;;;;;;;;;;;;;;;;;;;;;;;;;;;;[];;;;;;;
FR-02383-HOMBL-STETIE1-X;Homblières;église Saint-Étienne;Saint-Étienne;église;STETIE;Aisne;02;Hauts-de-France;02383;Homblières;;;;Orgues de Picardie -- Aisne;78-80;76-78;;;;;49.85129260;3.36376240;;;;;;;;;;;;;;;;;;;;;;;;;;;;;;;;;;;;;[];;;;;;;
FR-02141-CAPEL-STGRIM1-X;La Capelle;église Sainte-Grimonie;Sainte-Grimonie;église;STGRIM;Aisne;02;Hauts-de-France;02141;La Capelle;;;;Orgues de Picardie -- Aisne;81-82;79-80;;;;;49.97378910;3.91656150;;;;;;;;;;;;;;;PM02001488,PM02000190;;;;;;;;;;;;;;;;;;;;;;[];;;;;;;
FR-02304-FEREE-STMONT1-X;La Fère;église Saint-Montain;Saint-Montain;église;STMONT;Aisne;02;Hauts-de-France;02304;La Fère;;;;Orgues de Picardie -- Aisne;83-86;81-84;;;;;;;;;;;;;;;;;;;;;;;;;;;;;;;;;;;;;;;;;;;[];;;;;;;
FR-02307-F_MIL-NDAMEV1-X;La Ferté-Milon;église Notre-Dame;Notre-Dame;église;NDAMEV;Aisne;02;Hauts-de-France;02307;La Ferté-Milon;;;;Orgues de Picardie -- Aisne;87-89;85-87;;;;;;;;;;;;;;;;;;;;;PM02001493,PM02000471;;;;;;;;;;;;;;;;;;;;;;[];;;;;;;
FR-02307-F_MIL-STNICO1-X;La Ferté-Milon;église Saint-Nicolas;Saint-Nicolas;église;STNICO;Aisne;02;Hauts-de-France;02307;La Ferté-Milon;;;;Orgues de Picardie -- Aisne;90-92;88-90;;;;;;;;;;;;;;;;;;;;;;;;;;;;;;;;;;;;;;;;;;;[];;;;;;;
FR-02408-LAONN-NDAMEV1-T;Laon;Ancienne Cathédrale Notre-Dame;Notre-Dame;ancienne cathédrale;NDAMEV;Aisne;02;Hauts-de-France;02408;Laon;;;G.O.;Orgues de Picardie -- Aisne;93-95;91-93;;;;;;;;;;;;;;;;;;;;;PM02001495,PM02001494,PM02000609;;;;;;;;;;;;;;;;;;;;;;[];;;;;;;
FR-02408-LAONN-NDAMEV1-C;Laon;Ancienne Cathédrale Notre-Dame;Notre-Dame;ancienne cathédrale;NDAMEV;Aisne;02;Hauts-de-France;02408;Laon;;;O.C.;Orgues de Picardie -- Aisne;96-97;94-95;;;;;;;;;;;;;;;;;;;;;;;;;;;;;;;;;;;;;;;;;;;[];;;;;;;
FR-02408-LAONN-STJEAN1-X;Laon;église Saint-Jean-Baptiste de Vaux;Saint-Jean-Baptiste-de-Vaux;église;STJEAN;Aisne;02;Hauts-de-France;02408;Laon;;;;Orgues de Picardie -- Aisne;98-100;96-98;;;;;49.56827746;3.63413873;;;;;;;;;;;;;;;PM02001496,PM02001497;;;;;;;;;;;;;;;;;;;;;;[];;;;;;;
FR-02408-LAONN-STMARC1-X;Laon;église Saint-Marcel;Saint-Marcel;église;STMARC;Aisne;02;Hauts-de-France;02408;Laon;;;;Orgues de Picardie -- Aisne;101-102;99-100;;;;;49.56823670;3.62320660;;;;;;;;;;;;;;;;;;;;;;;;;;;;;;;;;;;;;[];;;;;;;
FR-02408-LAONN-STMART1-T;Laon;église Saint-Martin;Saint-Martin;église;STMART;Aisne;02;Hauts-de-France;02408;Laon;;;G.O.;Orgues de Picardie -- Aisne;103-105;101-103;;;;;49.56191350;3.61025310;;;;;;;;;;;;;;;PM02002211;;;;;;;;;;;;;;;;;;;;;;[];;;;;;;
FR-02408-LAONN-STMART1-C;Laon;église Saint-Martin;Saint-Martin;église;STMART;Aisne;02;Hauts-de-France;02408;Laon;;;O.C.;Orgues de Picardie -- Aisne;106-107;104-105;;;;;49.56191350;3.61025310;;;;;;;;;;;;;;;;;;;;;;;;;;;;;;;;;;;;;[];;;;;;;
FR-02558-N_THI-STDENI1-X;Le Nouvion-en-Thiérache;église Saint-Denis;Saint-Denis;église;STDENI;Aisne;02;Hauts-de-France;02558;Le Nouvion-en-Thiérache;;;;Orgues de Picardie -- Aisne;108-109;106-107;;;;;;;;;;;;;;;;;;;;;;;;;;;;;;;;;;;;;;;;;;;[];;;;;;;
FR-02430-L_DAM-NDAMEV1-X;Liesse-Notre-Dame;Basilique Notre-Dame;Notre-Dame;basilique;NDAMEV;Aisne;02;Hauts-de-France;02430;Liesse-Notre-Dame;;;;Orgues de Picardie -- Aisne;110-112;108-110;;;;;49.60991640;3.80388270;;;;;;;;;;;;;;;;;;;;;;;;;;;;;;;;;;;;;[];;;;;;;
FR-02468-MARLE-NDAMEV1-X;Marle;église Notre-Dame;Notre-Dame;église;NDAMEV;Aisne;02;Hauts-de-France;02468;Marle;;;;Orgues de Picardie -- Aisne;113-115;111-113;;;;;49.740259;3.770574;;;;;;;;;;;;;;;PM02001499,PM02001498,PM02002214,PM02002039;;;;;;;;;;;;;;;;;;;;;;[];;;;;;;
FR-02497-M_LAO-SSP-PL1-X;Mons-en-Laonnois;église Saint-Pierre & Saint-Paul;Saint-Pierre-&-Saint-Paul;église;SSP-PL;Aisne;02;Hauts-de-France;02497;Mons-en-Laonnois;;;;Orgues de Picardie -- Aisne;116-117;114-115;;;;;49.5379356;3.5539524;;;;;;;;;;;;;;;;;;;;;;;;;;;;;;;;;;;;;[];;;;;;;
FR-02502-MTCOR-STMART1-X;Montcornet;église Saint-Martin;Saint-Martin;église;STMART;Aisne;02;Hauts-de-France;02502;Montcornet;;;;Orgues de Picardie -- Aisne;118-120;116-118;;;;;49.694221;4.0174797;;;;;;;;;;;;;;;PM02001500,PM02000802;;;;;;;;;;;;;;;;;;;;;;[];;;;;;;
FR-02541-N_AIS-STPAUL1-X;Neufchâtel-sur-Aisne;église Saint-Paul;Saint-Paul;église;STPAUL;Aisne;02;Hauts-de-France;02541;Neufchâtel-sur-Aisne;;;;Orgues de Picardie -- Aisne;121-122;119-120;;;;;49.43158720;4.03448570;;;;;;;;;;;;;;;;;;;;;;;;;;;;;;;;;;;;;[];;;;;;;
FR-02543-N_FRO-STFRON1-X;Neuilly-Saint-Front;église Saint-Front;Saint-Front;église;STFRON;Aisne;02;Hauts-de-France;02543;Neuilly-Saint-Front;;;;Orgues de Picardie -- Aisne;123-123;121-121;;;;;49.1706303;3.260217;;;;;;;;;;;;;;;;;;;;;;;;;;;;;;;;;;;;;[];;;;;;;
FR-02544-N_MAI-STLAZA1-X;Neuve-Maison;église Saint-Lazare;Saint-Lazare;église;STLAZA;Aisne;02;Hauts-de-France;02544;Neuve-Maison;;;;Orgues de Picardie -- Aisne;124-127;122-125;;;;;49.92986280;4.03354820;;;;;;;;;;;;;;;PM02001501,PM02001502,PM02000857;;;;;;;;;;;;;;;;;;;;;;[];;;;;;;
FR-02555-N_ART-STGERM1-X;Nogent-l'Artaud;église Saint-Germain;Saint-Germain;église;STGERM;Aisne;02;Hauts-de-France;02555;Nogent-l'Artaud;;;;Orgues de Picardie -- Aisne;128-130;126-128;;;;;48.9664524;3.3230853;;;;;;;;;;;;;;;PM02001508,PM02001509,PM02001503;;;;;;;;;;;;;;;;;;;;;;[];;;;;;;
FR-02574-O_THI-STCYR-1-X;Origny-en-Thiérache;église Saint Cyr & Juliette;Saint-Cyr-&-Juliette;église;STCYR-;Aisne;02;Hauts-de-France;02574;Origny-en-Thiérache;;;;Orgues de Picardie -- Aisne;131-133;129-131;;;;;49.896459;4.0222514;;;;;;;;;;;;;;;;;;;;;;;;;;;;;;;;;;;;;[];;;;;;;
FR-02586-PARFO-STMEDA1-X;Parfondeval;église Saint-Médard;Saint-Médard;église;STMEDA;Aisne;02;Hauts-de-France;02586;Parfondeval;;;;Orgues de Picardie -- Aisne;134-135;132-133;;;;;49.7391921;4.1603959;;;;;;;;;;;;;;;;;;;;;;;;;;;;;;;;;;;;;[];;;;;;;
FR-02592-PARPE-STLEUU1-X;Parpeville;église Saint-Leu;Saint-Leu;église;STLEUU;Aisne;02;Hauts-de-France;02592;Parpeville;;;;Orgues de Picardie -- Aisne;136-137;134-135;;;;;49.7841182;3.5476613;;;;;;;;;;;;;;;;;;;;;;;;;;;;;;;;;;;;;[];;;;;;;
FR-02642-RESIG-STNICO1-X;Résigny;église Saint-Nicolas;Saint-Nicolas;église;STNICO;Aisne;02;Hauts-de-France;02642;Résigny;;;;Orgues de Picardie -- Aisne;138-139;136-137;;;;;49.7367315;4.2072085;;;;;;;;;;;;;;;;;;;;;;;;;;;;;;;;;;;;;[];;;;;;;
FR-02648-RIBEM-SSP-PL1-X;Ribemont;église Saint-Pierre & Saint-Paul;Saint-Pierre-&-Saint-Paul;église;SSP-PL;Aisne;02;Hauts-de-France;02648;Ribemont;;;;Orgues de Picardie -- Aisne;140-142;138-140;;;;;49.7969562;3.4603018;;;;;;;;;;;;;;;;;;;;;;;;;;;;;;;;;;;;;[];;;;;;;
FR-02666-R_SER-STLAUR1-X;Rozoy-sur-Serre;église Saint-Laurent;Saint-Laurent;église;STLAUR;Aisne;02;Hauts-de-France;02666;Rozoy-sur-Serre;;;;Orgues de Picardie -- Aisne;143-146;141-144;;;;;49.7078139;4.1284373;;;;;;;;;;;;;;;PM02001409,PM02001504,PM02002437;;;;;;;;;;;;;;;;;;;;;;[];;;;;;;
FR-02668-S_RIC-STMART1-X;Sains-Richaumont;église Saint-Martin;Saint-Martin;église;STMART;Aisne;02;Hauts-de-France;02668;Sains-Richaumont;;;;Orgues de Picardie -- Aisne;147-149;145-147;;;;;49.82560350;3.71550930;;;;;;;;;;;;;;;;;;;;;;;;;;;;;;;;;;;;;[];;;;;;;
FR-02676-SSRAM-STTHEO1-X;Saint-Erme-Outre-et-Ramecourt;église Saint-Théodulphe;Saint-Théodulphe;église;STTHEO;Aisne;02;Hauts-de-France;02676;Saint-Erme-Outre-et-Ramecourt;;;;Orgues de Picardie -- Aisne;150-151;148-149;;;;;49.5203958;3.8508421;;;;;;;;;;;;;;;;;;;;;;;;;;;;;;;;;;;;;[];;;;;;;
FR-02684-SSMIC-STMICH1-X;Saint-Michel;Abbaye de Saint-Michel-en-Thiérache;de-Saint-Michel-en-Thiérache;abbaye;STMICH;Aisne;02;Hauts-de-France;02684;Saint-Michel;;;;Orgues de Picardie -- Aisne;152-155;150-153;;;;;49.91807050;4.13398050;;;;;;;;;;;;;;;PM02001505,PM02001037,PM02001039;;;;;;;;;;;;;;;;;;;;;;[];;;;;;;
FR-02691-SSQUE-COLLEG1-X;Saint-Quentin;Basilique Collégiale Saint-Quentin;Collégiale-Saint-Quentin;basilique;COLLEG;Aisne;02;Hauts-de-France;02691;Saint-Quentin;;;;Orgues de Picardie -- Aisne;156-161;154-159;;;;;;;;;;;;;;;;;;;;;PM02001506,PM02001083;;;;;;;;;;;;;;;;;;;;;;[];;;;;;;
FR-02691-SSQUE-NDREMI1-X;Saint-Quentin;église Notre-Dame de Rémicourt;Notre-Dame-de-Rémicourt;église;NDREMI;Aisne;02;Hauts-de-France;02691;Saint-Quentin;;;;Orgues de Picardie -- Aisne;162-164;160-162;;;;;49.85413860;3.29407990;;;;;;;;;;;;;;;;;;;;;;;;;;;;;;;;;;;;;[];;;;;;;
FR-02691-SSQUE-STELOI1-X;Saint-Quentin;église Saint-Eloi;Saint-Eloi;église;STELOI;Aisne;02;Hauts-de-France;02691;Saint-Quentin;;;;Orgues de Picardie -- Aisne;165-168;163-166;;;;;49.83976110;3.30162490;;;;;;;;;;;;;;;;;;;;;;;;;;;;;;;;;;;;;[];;;;;;;
FR-02710-S_GRA-STMART1-X;Seraucourt-le-Grand;église Saint-Martin;Saint-Martin;église;STMART;Aisne;02;Hauts-de-France;02710;Seraucourt-le-Grand;;;;Orgues de Picardie -- Aisne;169-169;167-167;;;;;49.78133560;3.21209130;;;;;;;;;;;;;;;;;;;;;;;;;;;;;;;;;;;;;[];;;;;;;
FR-02720-SISSO-STMART1-X;Sissonne;église Saint-Martin;Saint-Martin;église;STMART;Aisne;02;Hauts-de-France;02720;Sissonne;;;;Orgues de Picardie -- Aisne;170-172;168-170;;;;;49.5702131;3.8910618;;;;;;;;;;;;;;;;;;;;;;;;;;;;;;;;;;;;;[];;;;;;;
FR-02721-SISSY-NDASSO1-X;Sissy;église Notre-Dame de l'Assomption;Notre-Dame-de-l'Assomption;église;NDASSO;Aisne;02;Hauts-de-France;02721;Sissy;;;;Orgues de Picardie -- Aisne;173-173;171-171;;;;;49.8034293;3.4320822;;;;;;;;;;;;;;;;;;;;;;;;;;;;;;;;;;;;;[];;;;;;;
FR-02722-SOISS-SSG-PS1-T;Soissons;Cathédrale Saint-Gervais & Saint-Protais;Saint-Gervais-&-Saint-Protais;cathédrale;SSG-PS;Aisne;02;Hauts-de-France;02722;Soissons;;;G.O.;Orgues de Picardie -- Aisne;174-178;172-176;;;;;;;;;;;;;;;;;;;;;PM02001510;;;;;;;;;;;;;;;;;;;;;;[];;;;;;;
FR-02722-SOISS-SSG-PS1-C;Soissons;Cathédrale Saint-Gervais & Saint-Protais;Saint-Gervais-&-Saint-Protais;cathédrale;SSG-PS;Aisne;02;Hauts-de-France;02722;Soissons;;;O.C.;Orgues de Picardie -- Aisne;179-180;177-178;;;;;;;;;;;;;;;;;;;;;PM02001511;;;;;;;;;;;;;;;;;;;;;;[];;;;;;;
FR-02722-SOISS-CITE-D1-X;Soissons;Cité de la Musique et de la Danse;Cité-de-la-Musique-et-de-la-Danse;None;CITE-D;Aisne;02;Hauts-de-France;02722;Soissons;;;;;;;;;;;49.3757126;3.3185256;;;;;/scripts/ogb.exe?database=ob2&%250=2046783&LGE=FR&LIJST=lang;;;;;;;;;;;;;;;;;/scripts/ogb.exe?database=ob2&%250=2046783&LGE=FR&LIJST=lang;;;;;;;;;;;;;;;[];;;;;;;
FR-02722-SOISS-STPAUL1-X;Soissons;Collège Saint-Paul;Saint-Paul;collège;STPAUL;Aisne;02;Hauts-de-France;02722;Soissons;;;;Orgues de Picardie -- Aisne;181-183;179-181;;;;;;;;;;;;;;;;;;;;;;;;;;;;;;;;;;;;;;;;;;;[];;;;;;;
FR-02722-SOISS-STEUGE1-X;Soissons;église Sainte-Eugénie;Sainte-Eugénie;église;STEUGE;Aisne;02;Hauts-de-France;02722;Soissons;;;;Orgues de Picardie -- Aisne;184-186;182-184;;;;;49.37178440;3.33772570;;;;;;;;;;;;;;;;;;;;;;;;;;;;;;;;;;;;;[];;;;;;;
FR-02722-SOISS-STWAAS1-X;Soissons;église Saint-Waast;Saint-Waast;église;STWAAS;Aisne;02;Hauts-de-France;02722;Soissons;;;;Orgues de Picardie -- Aisne;187-189;185-187;;;;;49.38312160;3.33391290;;;;;;;;;;;;;;;;;;;;;;;;;;;;;;;;;;;;;[];;;;;;;
FR-02723-SOIZE-STAUBI1-X;Soize;église Saint-Aubin;Saint-Aubin;église;STAUBI;Aisne;02;Hauts-de-France;02723;Soize;;;;Orgues de Picardie -- Aisne;190-191;188-189;;;;;49.7014746;4.0830517;;;;;;;;;;;;;;;PM02002580;;;;;;;;;;;;;;;;;;;;;;[];;;;;;;
FR-02741-THENE-STQUEN1-X;Thenelles;église Saint-Quentin;Saint-Quentin;église;STQUEN;Aisne;02;Hauts-de-France;02741;Thenelles;;;;Orgues de Picardie -- Aisne;192-194;190-192;;;;;49.8318202;3.469255;;;;;;;;;;;;;;;;;;;;;;;;;;;;;;;;;;;;;[];;;;;;;
FR-02775-VENDE-STJBAP1-X;Vendeuil;église Saint-Jean-Baptiste;Saint-Jean-Baptiste;église;STJBAP;Aisne;02;Hauts-de-France;02775;Vendeuil;;;;Orgues de Picardie -- Aisne;195-197;193-195;;;;;49.7187447;3.3511868;;;;;;;;;;;;;;;;;;;;;;;;;;;;;;;;;;;;;[];;;;;;;
FR-02788-VERSI-STJBAP1-X;Versigny;église Saint-Jean-Baptiste;Saint-Jean-Baptiste;église;STJBAP;Aisne;02;Hauts-de-France;02788;Versigny;;;;Orgues de Picardie -- Aisne;198-199;196-197;;;;;49.6536321;3.4337123;;;;;;;;;;;;;;;;;;;;;;;;;;;;;;;;;;;;;[];;;;;;;
FR-02789-VERVI-NDASSO1-X;Vervins;église Notre-Dame de l'Assomption;Notre-Dame-de-l'Assomption;église;NDASSO;Aisne;02;Hauts-de-France;02789;Vervins;;;;Orgues de Picardie -- Aisne;200-203;198-201;;;;;49.8349585;3.9079396;;;;;;;;;;;;;;;PM02001507,PM02001319;;;;;;;;;;;;;;;;;;;;;;[];;;;;;;
FR-02801-V_HOC-STMART1-X;Vigneux-Hocquet;église Saint-Martin;Saint-Martin;église;STMART;Aisne;02;Hauts-de-France;02801;Vigneux-Hocquet;;;;Orgues de Picardie -- Aisne;204-205;202-203;;;;;49.7402712;3.9914905;;;;;;;;;;;;;;;PM02002419;;;;;;;;;;;;;;;;;;;;;;[];;;;;;;
FR-02810-V_COT-STNICO1-X;Villers-Cotterêts;église Saint-Nicolas;Saint-Nicolas;église;STNICO;Aisne;02;Hauts-de-France;02810;Villers-Cotterêts;;;;Orgues de Picardie -- Aisne;206-208;204-206;;;;;49.254949;3.091224;;;;;;;;;;;;;;;;;;;;;;;;;;;;;;;;;;;;;[];;;;;;;
FR-03013-AVERM-NDSALE1-X;Avermes;église Notre-Dame de la Salette;Notre-Dame-de-la-Salette;église;NDSALE;Allier;03;Auvergne-Rhône-Alpes;03013;Avermes;;;;Orgues d'Auvergne;19,118;;03.01;;;http://amisorguesmoulins.chez.com/instruments/avermes/avermes.html;46.58750130;3.30756700;;;;;;;;;;;;;;;;;;;;;;;;;;;;;;;;;;;;;[];;;;;;;
FR-03036-B_ARC-STGEOR1-X;Bourbon-l'Archambault;église Saint-Georges;Saint-Georges;église;STGEOR;Allier;03;Auvergne-Rhône-Alpes;03036;Bourbon-l'Archambault;;;;Orgues d'Auvergne;22;;03.02;;;;46.58175180;3.05779060;;;;;;;;;;;;;;;PM03000673,PM03000674;;;;;;;;;;;;;;;;;;;;;;[];;;;;;;
FR-03053-CNLLE-STVINC1-X;Chantelle;église Abbatiale Saint-Vincent (Ancienne Chapelle des Bénédictines de Chantelle);Saint-Vincent;église abbatiale;STVINC;Allier;03;Auvergne-Rhône-Alpes;03053;Chantelle;;;;Orgues d'Auvergne;25;;03.03;;;;46.24134540;3.15166630;;;;;;;;;;;;;;;;;;;;;;;;;;;;;;;;;;;;;[];;;;;;;
FR-03082-COMME-SCOEUR1-X;Commentry;église du Sacré Coeur;du-Sacré-Cœur;église;SCOEUR;Allier;03;Auvergne-Rhône-Alpes;03082;Commentry;;;;Orgues d'Auvergne;28;;03.04;;;;46.28885600;2.74014880;;;;;;;;;;;;;;;PM03000676,PM03000675;;;;;;;;;;;;;;;;;;;;;;[];;;;;;;
FR-03084-C_ALL-STMART1-X;Cosne-d'Allier;église Saint-Martin;Saint-Martin;église;STMART;Allier;03;Auvergne-Rhône-Alpes;03084;Cosne-d'Allier;;;;Orgues d'Auvergne;31;;03.05;;;;46.47316110;2.83143270;;;;;;;;;;;;;;;;;;;;;;;;;;;;;;;;;;;;;[];;;;;;;
FR-03095-CUSSE-STSATU1-X;Cusset;église Saint-Saturnin;Saint-Saturnin;église;STSATU;Allier;03;Auvergne-Rhône-Alpes;03095;Cusset;;;;Orgues d'Auvergne;34;;03.06;;;;46.13248930;3.45596350;;;;;;;;;;;;;;;;;;;;;;;;;;;;;;;;;;;;;[];;;;;;;
FR-03102-D_BES-NDFONS1-X;Dompierre-sur-Besbre;église Abbatiale Notre-Dame de Sept Fons;Notre-Dame-de-Sept-Fons;église abbatiale;NDFONS;Allier;03;Auvergne-Rhône-Alpes;03102;Dompierre-sur-Besbre;;;;Orgues d'Auvergne;40;;03.08;;;;;;;;;;;;;;;;;;;;;;;;;;;;;;;;;;;;;;;;;;[];;;;;;;
FR-03102-D_BES-SSP-PL1-X;Dompierre-sur-Besbre;église Saint-Pierre & Saint-Paul;Saint-Pierre-&-Saint-Paul;église;SSP-PL;Allier;03;Auvergne-Rhône-Alpes;03102;Dompierre-sur-Besbre;;;;Orgues d'Auvergne;37;;03.07;;;;;;;;;;;;;;;;;;;;;;;;;;;;;;;;;;;;;;;;;;[];;;;;;;
FR-03106-D_LAR-STMART1-X;Durdat-Larequille;église Saint-Martial;Saint-Martial;église;STMART;Allier;03;Auvergne-Rhône-Alpes;03106;Durdat-Larequille;;;;;;;;;;;46.25277400;2.70326600;;;;;;;;;;;;;;;;;;;;;;;;;;;;;;;;;;;;;[];;;;;;;
FR-03118-GANNA-STCROI1-X;Gannat;église Sainte-Croix;Sainte-Croix;église;STCROI;Allier;03;Auvergne-Rhône-Alpes;03118;Gannat;;;;Orgues d'Auvergne;42;;03.09;;;;46.09944160;3.19787140;;;;;;;;;;;;;;;PM03000121,PM03000677;;;;;;;;;;;;;;;;;;;;;;[];;;;;;;
FR-03138-LAPAL-STJBAP1-X;Lapalisse;église Saint-Jean Baptiste;Saint-Jean-Baptiste;église;STJBAP;Allier;03;Auvergne-Rhône-Alpes;03138;Lapalisse;;;;Orgues d'Auvergne;45;;03.10;;;;46.24959140;3.63886490;;;;;;;;;;;;;;;;;;;;;;;;;;;;;;;;;;;;;[];;;;;;;
FR-03185-MTLUC-STJOSE1-X;Montluçon;Chapelle du collège Saint-Joseph;Saint-Joseph;chapelle du college;STJOSE;Allier;03;Auvergne-Rhône-Alpes;03185;Montluçon;;;;Orgues d'Auvergne;50;;03.11;;;;;;;;;;;;;;;;;;;;PM03000279,PM03000682;;;;;;;;;;;;;;;;;;;;;;[];;;;;;;
FR-03185-MTLUC-NDAMEV1-X;Montluçon;église Notre-Dame;Notre-Dame;église;NDAMEV;Allier;03;Auvergne-Rhône-Alpes;03185;Montluçon;;;;Orgues d'Auvergne;53;;03.12;;;;;;;;;;;;;;;;;;;;PM03000679,PM03000681,PM03000680;;;;;;;;;;;;;;;;;;;;;;[];;;;;;;
FR-03185-MTLUC-STPAUL1-X;Montluçon;église Saint-Paul;Saint-Paul;église;STPAUL;Allier;03;Auvergne-Rhône-Alpes;03185;Montluçon;;;;Orgues d'Auvergne;56;;03.13;;;;;;;;;;;;;;;;;;;;PM03000683,PM03000684;;;;;;;;;;;;;;;;;;;;;;[];;;;;;;
FR-03185-MTLUC-STPIER1-X;Montluçon;église Saint-Pierre;Saint-Pierre;église;STPIER;Allier;03;Auvergne-Rhône-Alpes;03185;Montluçon;;;;Orgues d'Auvergne;59;;03.14;;;;;;;;;;;;;;;;;;;;;;;;;;;;;;;;;;;;;;;;;;[];;;;;;;
FR-03190-MOULI-NDAMEV1-T;Moulins;Cathédrale Notre-Dame;Notre-Dame;cathédrale;NDAMEV;Allier;03;Auvergne-Rhône-Alpes;03190;Moulins;;;Grand Orgue;Orgues d'Auvergne;62;;03.15;;;;46.56712240;3.33209630;;;;;;;;;;;;;;;;;;;;;;;;;;;;;;;;;;;;;[];;;;;;;
FR-03190-MOULI-NDAMEV1-C;Moulins;Cathédrale Notre-Dame;Notre-Dame;cathédrale;NDAMEV;Allier;03;Auvergne-Rhône-Alpes;03190;Moulins;;;O.C.;Orgues d'Auvergne;67;;03.16;;;;46.56712240;3.33209630;;;;;;;;;;;;;;;;;;;;;;;;;;;;;;;;;;;;;[];;;;;;;
FR-03190-MOULI-SCOEUR1-X;Moulins;église du Sacré-Cœur;du-Sacré-Cœur;église;SCOEUR;Allier;03;Auvergne-Rhône-Alpes;03190;Moulins;;;;Orgues d'Auvergne;73;;03.18;;;;;;;;;;;;;;;;;;;;;;;;;;;;;;;;;;;;;;;;;;[];;;;;;;
FR-03190-MOULI-STPIER1-X;Moulins;église Saint-Pierre;Saint-Pierre;église;STPIER;Allier;03;Auvergne-Rhône-Alpes;03190;Moulins;;;;Orgues d'Auvergne;76;;03.19;;;;46.56244890;3.33320390;;;;;;;;;;;;;;;;;;;;;;;;;;;;;;;;;;;;;[];;;;;;;
FR-03190-MOULI-NDAMEV2-X;Moulins;Institution Notre-Dame;Notre-Dame;institution;NDAMEV;Allier;03;Auvergne-Rhône-Alpes;03190;Moulins;;;;Orgues d'Auvergne;70;;03.17;;;;46.56712240;3.33209630;;;;;;;;;;;;;;;;;;;;;;;;;;;;;;;;;;;;;[];;;;;;;
FR-03211-PREMI-STPIER1-X;Prémilhat;église Saint-Pierre;Saint-Pierre;église;STPIER;Allier;03;Auvergne-Rhône-Alpes;03211;Prémilhat;;;;;;;;;;;46.31340990;2.53555630;;;;;;;;;;;;;;;;;;;;;;;;;;;;;;;;;;;;;[];;;;;;;
FR-03236-SSFOS-STGERM1-X;Saint-Germain-des-Fossés;église Saint-Germain;Saint-Germain;église;STGERM;Allier;03;Auvergne-Rhône-Alpes;03236;Saint-Germain-des-Fossés;;;;;;;;;;;;;;;;;;;;;;;;;;;;;;;;;;;;;;;;;;;;;;;;;[];;;;;;;
FR-03254-SSSIO-STCROI1-X;Saint-Pourçain-sur-Sioule;église Sainte-Croix;Sainte-Croix;église;STCROI;Allier;03;Auvergne-Rhône-Alpes;03254;Saint-Pourçain-sur-Sioule;;;;Orgues d'Auvergne;80;;03.20;;;;;;;;;;;;;;;;;;;;PM03000477,PM03000686;;;;;;;;;;;;;;;;;;;;;;[];;;;;;;
FR-03275-SOUVI-SSP-PL1-X;Souvigny;église Saint-Pierre & Saint-Paul;Saint-Pierre-&-Saint-Paul;église;SSP-PL;Allier;03;Auvergne-Rhône-Alpes;03275;Souvigny;;;;Orgues d'Auvergne;85,99-100;;03.21;;;;;;;;;;;;;;;;;;;;PM03000687,PM03000514,PM03000513;;;;;;;;;;;;;;;;;;;;;;[];;;;;;;
FR-03298-V_ALL-FRERES1-X;Varennes-sur-Allier;Chapelle des Frères Maristes;des-Frères-Maristes;chapelle;FRERES;Allier;03;Auvergne-Rhône-Alpes;03298;Varennes-sur-Allier;;;;Orgues d'Auvergne;95;;03.22;;;;;;;;;;;;;;;;;;;;;;;;;;;;;;;;;;;;;;;;;;[];;;;;;;
FR-03310-VICHY-MISSIO1-X;Vichy;Chapelle des Missionnaires;des-Missionnaires;chapelle;MISSIO;Allier;03;Auvergne-Rhône-Alpes;03310;Vichy;;;;Orgues d'Auvergne;98,101;;03.23;;;;;;;;;;;;;;;;;;;;;;;;;;;;;;;;;;;;;;;;;;[];;;;;;;
FR-03310-VICHY-STBIAI1-X;Vichy;église Saint-Biaise;Saint-Biaise;église;STBIAI;Allier;03;Auvergne-Rhône-Alpes;03310;Vichy;;;;Orgues d'Auvergne;102,117;;03.24;;;;;;;;;;;;;;;;;;;;;;;;;;;;;;;;;;;;;;;;;;[];;;;;;;
FR-03310-VICHY-STJEAN1-X;Vichy;église Sainte-Jeanne-d'Arc;Sainte-Jeanne-d'Arc;église;STJEAN;Allier;03;Auvergne-Rhône-Alpes;03310;Vichy;;;;Orgues d'Auvergne;106;;03.25;;;;46.12306550;3.42239710;;;;;;;;;;;;;;;;;;;;;;;;;;;;;;;;;;;;;[];;;;;;;
FR-03310-VICHY-STLOUI1-T;Vichy;église Saint-Louis;Saint-Louis;église;STLOUI;Allier;03;Auvergne-Rhône-Alpes;03310;Vichy;;;Grand Orgue;Orgues d'Auvergne;114-116;;03.27;;;;46.12306550;3.42239710;;;;;;;;;;;;;;;;;;;;;;;;;;;;;;;;;;;;;[];;;;;;;
FR-03310-VICHY-STLOUI1-C;Vichy;église Saint-Louis;Saint-Louis;église;STLOUI;Allier;03;Auvergne-Rhône-Alpes;03310;Vichy;;;O.C.;Orgues d'Auvergne;119;;03.28;;;;46.12306550;3.42239710;;;;;;;;;;;;;;;;;;;;;;;;;;;;;;;;;;;;;[];;;;;;;
FR-03310-VICHY-TEMPLE1-X;Vichy;Temple;;temple;TEMPLE;Allier;03;Auvergne-Rhône-Alpes;03310;Vichy;;;;Orgues d'Auvergne;121;;03.29;;;;;;;;;;;;;;;;;;;;;;;;;;;;;;;;;;;;;;;;;;[];;;;;;;
FR-03310-VICHY-DU-GRA1-X;Vichy;Théâtre du Grand Casino;du-Grand-Casino;théâtre;DU-GRA;Allier;03;Auvergne-Rhône-Alpes;03310;Vichy;;;;Orgues d'Auvergne;123;;03.30;;;;;;;;;;;;;;;;;;;;;;;;;;;;;;;;;;;;;;;;;;[];;;;;;;
FR-04019-BARCE-STPIER1-X;Barcelonnette;église Saint-Pierre-aux-liens;Saint-Pierre-Aux-Liens;église;STPIER;Alpes-de-Haute-Provence;04;Provence-Alpes-Côte d'Azur;04019;Barcelonnette;;;;Orgues des Alpes-de-Haute-Provence, Hautes-Alpes, Alpes-Maritimes;11;12;;;;;44.38623090;6.64791980;;;;;;;;;;;;;;;;;;;;;;;;;;;;;;;;;;;;;[];;;;;;;
FR-04022-BARRE-STJBAP1-X;Barrême;église Saint-Jean-Baptiste;Saint-Jean-Baptiste;église;STJBAP;Alpes-de-Haute-Provence;04;Provence-Alpes-Côte d'Azur;04022;Barrême;;;;Orgues des Alpes-de-Haute-Provence, Hautes-Alpes, Alpes-Maritimes;13;14;;;;;;;;;;;;;;;;;;;;;;;;;;;;;;;;;;;;;;;;;;;[];;;;;;;
FR-04039-CSLLA-STVICT1-X;Castellane;église Saint-Victor;Saint-Victor;église;STVICT;Alpes-de-Haute-Provence;04;Provence-Alpes-Côte d'Azur;04039;Castellane;;;;Orgues des Alpes-de-Haute-Provence, Hautes-Alpes, Alpes-Maritimes;15;16;;;;;;;;;;;;;;;;;;;;;;;;;;;;;;;;;;;;;;;;;;;[];;;;;;;
FR-04068-DAUPH-STMART1-X;Dauphin;église Saint-Martin;Saint-Martin;église;STMART;Alpes-de-Haute-Provence;04;Provence-Alpes-Côte d'Azur;04068;Dauphin;;;;Orgues des Alpes-de-Haute-Provence, Hautes-Alpes, Alpes-Maritimes;17;18;;;;;43.89880170;5.78411230;;;;;;;;;;;;;;;;;;;;;;;;;;;;;;;;;;;;;[];;;;;;;
FR-04070-D_BAI-STJERO1-T;Digne-les-Bains;cathédrale Saint-Jérôme;Saint-Jérôme;cathédrale;STJERO;Alpes-de-Haute-Provence;04;Provence-Alpes-Côte d'Azur;04070;Digne-les-Bains;;;G.O.;Orgues des Alpes-de-Haute-Provence, Hautes-Alpes, Alpes-Maritimes;19;20;;;;;44.09219300;6.23597600;;;;;;;;;;;;;;;PM04000121,PM04000876;;;;;;;;;;;;;;;;;;;;;;[];;;;;;;
FR-04070-D_BAI-STJERO1-C;Digne-les-Bains;cathédrale Saint-Jérôme;Saint-Jérôme;cathédrale;STJERO;Alpes-de-Haute-Provence;04;Provence-Alpes-Côte d'Azur;04070;Digne-les-Bains;;;O.C.;Orgues des Alpes-de-Haute-Provence, Hautes-Alpes, Alpes-Maritimes;21;22;;;;;44.09219300;6.23597600;;;;;;;;;;;;;;;;;;;;;;;;;;;;;;;;;;;;;[];;;;;;;
FR-04070-D_BAI-STENFA1-X;Digne-les-Bains;couvent de la Sainte-Enfance;de-la-Sainte-Enfance;couvent;STENFA;Alpes-de-Haute-Provence;04;Provence-Alpes-Côte d'Azur;04070;Digne-les-Bains;;;;Orgues des Alpes-de-Haute-Provence, Hautes-Alpes, Alpes-Maritimes;23;24;;;;;;;;;;;;;;;;;;;;;;;;;;;;;;;;;;;;;;;;;;;[];;;;;;;
FR-04076-ENTRE-NDASSO1-X;Entrevaux;église Notre-Dame-de-l'Assomption (ancienne cathédrale de Glaudeves);Notre-Dame-de-l'Assomption;église;NDASSO;Alpes-de-Haute-Provence;04;Provence-Alpes-Côte d'Azur;04076;Entrevaux;;;;Orgues des Alpes-de-Haute-Provence, Hautes-Alpes, Alpes-Maritimes;25;26;;;;;43.94964640;6.81000840;;;;;;;;;;;;;;;PM04000139,PM04000877,PM04000140;;;;;;;;;;;;;;;;;;;;;;[];;;;;;;
FR-04088-FORCA-NDBOUR1-X;Forcalquier;Co-Cathédrale Notre-Dame-du-Bourget;Notre-Dame-du-Bourget;co-cathédrale;NDBOUR;Alpes-de-Haute-Provence;04;Provence-Alpes-Côte d'Azur;04088;Forcalquier;;;;Orgues des Alpes-de-Haute-Provence, Hautes-Alpes, Alpes-Maritimes;27;28;;;;;;;;;;;;;;;;;;;;;PM04000160,PM04000878;;;;;;;;;;;;;;;;;;;;;;[];;;;;;;
FR-04094-G_BAI-NDORME1-X;Gréoux-les-Bains;église Notre-Dame-des-Ormeaux;Notre-Dame-des-Ormeaux;église;NDORME;Alpes-de-Haute-Provence;04;Provence-Alpes-Côte d'Azur;04094;Gréoux-les-Bains;;;;;;;;;;;43.75837970;5.88595400;;;;;/scripts/ogb.exe?database=ob2&%250=2048992&LGE=FR&LIJST=lang;;;;;;;;;;;;;;;;;/scripts/ogb.exe?database=ob2&%250=2048992&LGE=FR&LIJST=lang;;;;;;;;;;;;;;;[];;;;;;;
FR-04116-MEESS-NDOLIV1-X;Les Mées;église Notre-Dame de l'Olivier;Notre-Dame-de-l'Olivier;église;NDOLIV;Alpes-de-Haute-Provence;04;Provence-Alpes-Côte d'Azur;04116;Les Mées;;;;Orgues des Alpes-de-Haute-Provence, Hautes-Alpes, Alpes-Maritimes;29;30;;;;;;;;;;;;;;;;;;;;;;;;;;;;;;;;;;;;;;;;;;;[];;;;;;;
FR-04112-MANOS-STSAUV1-X;Manosque;cathédrale Saint-Sauveur;Saint-Sauveur;cathédrale;STSAUV;Alpes-de-Haute-Provence;04;Provence-Alpes-Côte d'Azur;04112;Manosque;;;;Orgues des Alpes-de-Haute-Provence, Hautes-Alpes, Alpes-Maritimes;31;32;;;;;43.83250910;5.78338600;;;;;;;;;;;;;;;PM04000214,PM04000222,PM04000879;;;;;;;;;;;;;;;;;;;;;;[];;;;;;;
FR-06099-P_THE-NDASSO1-X;Puget-Théniers;église Notre-Dame de l’Assomption;Notre-Dame-de-L’Assomption;église;NDASSO;Alpes-Maritimes;06;Provence-Alpes-Côte d'Azur;06099;Puget-Théniers;;;;;;;;;;;;;;;;;/scripts/ogb.exe?database=ob2&%250=2060190&LGE=FR&LIJST=lang;;;;;;;;;;;;;;;;;/scripts/ogb.exe?database=ob2&%250=2060190&LGE=FR&LIJST=lang;;;;;;;;;;;;;;;[];;;;;;;
FR-04166-RIEZZ-NDASSO1-X;Riez;Cathédrale Notre-Dame-de-l'Assomption;Notre-Dame-de-l'Assomption;cathédrale;NDASSO;Alpes-de-Haute-Provence;04;Provence-Alpes-Côte d'Azur;04166;Riez;;;;Orgues des Alpes-de-Haute-Provence, Hautes-Alpes, Alpes-Maritimes;33;34;;;;;;;;;;;;;;;;;;;;;PM04001267,PM04001268,PM04000880,PM04000348;;;;;;;;;;;;;;;;;;;;;;[];;;;;;;
FR-06116-SSAUB-JESUS-1-X;Saint-Auban;église Jésus ouvrier;Jésus-Ouvrier;église;JESUS-;Alpes-Maritimes;06;Provence-Alpes-Côte d'Azur;06116;Saint-Auban;;;;Orgues des Alpes-de-Haute-Provence, Hautes-Alpes, Alpes-Maritimes;35;36;;;;;;;;;;;;;;;;;;;;;;;;;;;;;;;;;;;;;;;;;;;[];;;;;;;
FR-06126-SSVAR-STROCH1-X;Saint-Martin-du-Var;église Saint-Roche;Saint-Roche;église;STROCH;Alpes-Maritimes;06;Provence-Alpes-Côte d'Azur;06126;Saint-Martin-du-Var;;;;;;;;;;;;;;;;;/scripts/ogb.exe?database=ob2&%250=2060192&LGE=FR&LIJST=lang;;;;;;;;;;;;;;;;;/scripts/ogb.exe?database=ob2&%250=2060192&LGE=FR&LIJST=lang;;;;;;;;;;;;;;;[];;;;;;;
FR-04192-SSOBS-STMICH1-X;Saint-Michel-l'Observatoire;église Saint-Michel;Saint-Michel;église;STMICH;Alpes-de-Haute-Provence;04;Provence-Alpes-Côte d'Azur;04192;Saint-Michel-l'Observatoire;;;;Orgues des Alpes-de-Haute-Provence, Hautes-Alpes, Alpes-Maritimes;37;38;;;;;43.90559280;5.71945220;;;;;;;;;;;;;;;;;;;;;;;;;;;;;;;;;;;;;[];;;;;;;
FR-04209-SISTE-NDPOMM1-X;Sisteron;Cathédrale Notre-Dame-des-Pommiers;Notre-Dame-des-Pommiers;cathédrale;NDPOMM;Alpes-de-Haute-Provence;04;Provence-Alpes-Côte d'Azur;04209;Sisteron;;;;Orgues des Alpes-de-Haute-Provence, Hautes-Alpes, Alpes-Maritimes;39;40;;;;;;;;;;;;;;;;;;;;;PM04000881,PM04000882;;;;;;;;;;;;;;;;;;;;;;[];;;;;;;
FR-06004-ANTIB-IMMACU1-X;Antibes;ancienne cathédrale de l'Immaculée-Conception;de-l'Immaculée-Conception;ancienne cathédrale;IMMACU;Alpes-Maritimes;06;Provence-Alpes-Côte d'Azur;06004;Antibes;;;;Orgues des Alpes-de-Haute-Provence, Hautes-Alpes, Alpes-Maritimes;77;79;0601 Al;;;;;;;;;;;;;;;;;;;;PM06003689;;;;;;;;;;;;;;;;;;;;;;[];;;;;;;
FR-06004-ANTIB-IMMACU1-C;Antibes;ancienne cathédrale de l'Immaculée-Conception;de-l'Immaculée-Conception;ancienne cathédrale;IMMACU;Alpes-Maritimes;06;Provence-Alpes-Côte d'Azur;06004;Antibes;;;O.C.;Orgues des Alpes-de-Haute-Provence, Hautes-Alpes, Alpes-Maritimes;79;81;0602 A2;;;;;;;;;;;;;;;;;;;;;;;;;;;;;;;;;;;;;;;;;;[];;;;;;;
FR-06004-ANTIB-SCOEUR1-X;Antibes;église du Sacré-Cœur;du-Sacré-Cœur;église;SCOEUR;Alpes-Maritimes;06;Provence-Alpes-Côte d'Azur;06004;Antibes;;;;Orgues des Alpes-de-Haute-Provence, Hautes-Alpes, Alpes-Maritimes;81;83;0603 A3;;;;;;;;;;;;;;;;;;;;;;;;;;;;;;;;;;;;;;;;;;[];;;;;;;
FR-06004-ANTIB-STJEAN1-X;Antibes;église Sainte-Jeanne-d'Arc;Sainte-Jeanne-d'Arc;église;STJEAN;Alpes-Maritimes;06;Provence-Alpes-Côte d'Azur;06004;Antibes;Juan-les-Pins;;;Orgues des Alpes-de-Haute-Provence, Hautes-Alpes, Alpes-Maritimes;123;125;0624 11;;;;;;;;;;;;;;;;;;;;;;;;;;;;;;;;;;;;;;;;;;[];;;;;;;
FR-06011-B_MER-SCOEUR1-X;Beaulieu-sur-Mer;église du Sacré-Cœur;du-Sacré-Cœur;église;SCOEUR;Alpes-Maritimes;06;Provence-Alpes-Côte d'Azur;06011;Beaulieu-sur-Mer;;;;Orgues des Alpes-de-Haute-Provence, Hautes-Alpes, Alpes-Maritimes;83;85;0604 B1;;;;;;;;;;;;;;;;;;;;;;;;;;;;;;;;;;;;;;;;;;[];;;;;;;
FR-06023-B_ROY-STCATH1-X;Breil-sur-Roya;chapelle Sainte-Catherine;Sainte-Catherine;chapelle;STCATH;Alpes-Maritimes;06;Provence-Alpes-Côte d'Azur;06023;Breil-sur-Roya;;;;Orgues des Alpes-de-Haute-Provence, Hautes-Alpes, Alpes-Maritimes;85;87;0605 B2;;;;;;;;;;;;;;;;;;;;;;;;;;;;;;;;;;;;;;;;;;[];;;;;;;
FR-06023-B_ROY-SANCTA1-X;Breil-sur-Roya;église paroissiale Sancta-Maria-in-Albis;Sancta-Maria-In-Albis;église paroissiale;SANCTA;Alpes-Maritimes;06;Provence-Alpes-Côte d'Azur;06023;Breil-sur-Roya;;;;Orgues des Alpes-de-Haute-Provence, Hautes-Alpes, Alpes-Maritimes;87;89;0606 B3;;;;;;;;;;;;;;;;;;;;PM06002735,PM06000068;;;;;;;;;;;;;;;;;;;;;;[];;;;;;;
FR-06028-CAILL-STSUZA1-C;Caille;église Sainte-Suzanne-et-Notre-Dame;Sainte-Suzanne-et-Notre-Dame;église;STSUZA;Alpes-Maritimes;06;Provence-Alpes-Côte d'Azur;06028;Caille;;;O.C.;Orgues des Alpes-de-Haute-Provence, Hautes-Alpes, Alpes-Maritimes;255;257;0684 T4;;;;;;;;;;;;;;;;;;;;;;;;;;;;;;;;;;;;;;;;;;[];;;;;;;
FR-06029-CANNE-DU-SOU1-X;Cannes;chapelle du Souvenir (ou Saint-Victor);du-Souvenir;chapelle;DU-SOU;Alpes-Maritimes;06;Provence-Alpes-Côte d'Azur;06029;Cannes;;;;Orgues des Alpes-de-Haute-Provence, Hautes-Alpes, Alpes-Maritimes;89;91;0607 Cl;;;;;;;;;;;;;;;;;;;;;;;;;;;;;;;;;;;;;;;;;;[];;;;;;;
FR-06029-CANNE-DU-CHR1-C;Cannes;église du Christ-Roi;du-Christ-Roi;église;DU-CHR;Alpes-Maritimes;06;Provence-Alpes-Côte d'Azur;06029;Cannes;;;O.C.;Orgues des Alpes-de-Haute-Provence, Hautes-Alpes, Alpes-Maritimes;109;111;0617 Cil;;;;;;;;;;;;;;;;;;;;;;;;;;;;;;;;;;;;;;;;;;[];;;;;;;
FR-06029-CANNE-EVANGE1-X;Cannes;église évangélique libre;Évangélique-Libre;église;EVANGE;Alpes-Maritimes;06;Provence-Alpes-Côte d'Azur;06029;Cannes;;;;Orgues des Alpes-de-Haute-Provence, Hautes-Alpes, Alpes-Maritimes;93;95;0609 C3;;;;;;;;;;;;;;;;;;;;;;;;;;;;;;;;;;;;;;;;;;[];;;;;;;
FR-06029-CANNE-NDESPE1-X;Cannes;église Notre-Dame-d'Espérance;Notre-Dame-d'Espérance;église;NDESPE;Alpes-Maritimes;06;Provence-Alpes-Côte d'Azur;06029;Cannes;;;;Orgues des Alpes-de-Haute-Provence, Hautes-Alpes, Alpes-Maritimes;99;101;0612 C6;;;;;;;;;;;;;;;;;;;;;;;;;;;;;;;;;;;;;;;;;;[];;;;;;;
FR-06029-CANNE-NDPINS1-X;Cannes;église Notre-Dame-des-Pins;Notre-Dame-des-Pins;église;NDPINS;Alpes-Maritimes;06;Provence-Alpes-Côte d'Azur;06029;Cannes;;;;Orgues des Alpes-de-Haute-Provence, Hautes-Alpes, Alpes-Maritimes;101;103;0613 C7;;;;43.54640120;7.03849470;;;;;;;;;;;;;;;;;;;;;;;;;;;;;;;;;;;;;[];;;;;;;
FR-06029-CANNE-NDVOYA1-T;Cannes;église Notre-Dame-du-Bon-Voyage;Notre-Dame-du-Bon-Voyage;église;NDVOYA;Alpes-Maritimes;06;Provence-Alpes-Côte d'Azur;06029;Cannes;;;G.O.;Orgues des Alpes-de-Haute-Provence, Hautes-Alpes, Alpes-Maritimes;95;97;0610 C4;;;;;;;;;;;;;;;;;;;;;;;;;;;;;;;;;;;;;;;;;;[];;;;;;;
FR-06029-CANNE-NDVOYA1-C;Cannes;église Notre-Dame-du-Bon-Voyage;Notre-Dame-du-Bon-Voyage;église;NDVOYA;Alpes-Maritimes;06;Provence-Alpes-Côte d'Azur;06029;Cannes;;;O.C.;Orgues des Alpes-de-Haute-Provence, Hautes-Alpes, Alpes-Maritimes;97;99;0611 C5;;;;;;;;;;;;;;;;;;;;;;;;;;;;;;;;;;;;;;;;;;[];;;;;;;
FR-06029-CANNE-REFORM1-X;Cannes;église réformée;;église réformée;REFORM;Alpes-Maritimes;06;Provence-Alpes-Côte d'Azur;06029;Cannes;;;;Orgues des Alpes-de-Haute-Provence, Hautes-Alpes, Alpes-Maritimes;103;105;0614 C8;;;;;;;;;;;;;;;;;;;;;;;;;;;;;;;;;;;;;;;;;;[];;;;;;;
FR-06029-CANNE-STGEOR1-X;Cannes;église Saint-Georges;Saint-Georges;église;STGEOR;Alpes-Maritimes;06;Provence-Alpes-Côte d'Azur;06029;Cannes;;;;Orgues des Alpes-de-Haute-Provence, Hautes-Alpes, Alpes-Maritimes;91;93;0608 C2;;;;43.55143070;7.04077180;;;;;;;;;;;;;;;;;;;;;;;;;;;;;;;;;;;;;[];;;;;;;
FR-06029-CANNE-STJOSE1-X;Cannes;église Saint-Joseph;Saint-Joseph;église;STJOSE;Alpes-Maritimes;06;Provence-Alpes-Côte d'Azur;06029;Cannes;;;;Orgues des Alpes-de-Haute-Provence, Hautes-Alpes, Alpes-Maritimes;105;107;0615 C9;;;;43.55652460;7.00797810;;;;;;;;;;;;;;;;;;;;;;;;;;;;;;;;;;;;;[];;;;;;;
FR-06029-CANNE-STANIS1-X;Cannes;institut Stanislas;Stanislas;institut;STANIS;Alpes-Maritimes;06;Provence-Alpes-Côte d'Azur;06029;Cannes;;;;Orgues des Alpes-de-Haute-Provence, Hautes-Alpes, Alpes-Maritimes;107;109;0616 CIO;;;;;;;;;;;;;;;;;;;;;;;;;;;;;;;;;;;;;;;;;;[];;;;;;;
FR-06029-CANNE-NDLERI1-X;Cannes;église Abbatiale Notre-Dame de Lérins;Notre-Dame-de-Lérins;église abbatiale;NDLERI;Alpes-Maritimes;06;Provence-Alpes-Côte d'Azur;06029;Cannes;;île Saint-Honorat;;Orgues des Alpes-de-Haute-Provence, Hautes-Alpes, Alpes-Maritimes;111;113;0618 C12;;;;;;;;;;;;;;;;;;;;;;;;;;;;;;;;;;;;;;;;;;[];;;;;;;
FR-06042-CLANS-COLLEG1-X;Clans;église Collégiale Sainte-Marie;Collégiale-Sainte-Marie;église;COLLEG;Alpes-Maritimes;06;Provence-Alpes-Côte d'Azur;06042;Clans;;;;Orgues des Alpes-de-Haute-Provence, Hautes-Alpes, Alpes-Maritimes;113;115;0619 C13;;;;;;;;;;;;;;;;;;;;PM06002738,PM06000195,PM06002737;;;;;;;;;;;;;;;;;;;;;;[];;;;;;;
FR-06048-CONTE-STMADE1-X;Contes;église Sainte-Madeleine;Sainte-Madeleine;église;STMADE;Alpes-Maritimes;06;Provence-Alpes-Côte d'Azur;06048;Contes;;;;Orgues des Alpes-de-Haute-Provence, Hautes-Alpes, Alpes-Maritimes;115;117;0620 C14;;;;;;;;;;;;;;;;;;;;;;;;;;;;;;;;;;;;;;;;;;[];;;;;;;
FR-06062-FTANN-NDVISI1-X;Fontan;église Notre-Dame-de-la-Visitation;Notre-Dame-de-la-Visitation;église;NDVISI;Alpes-Maritimes;06;Provence-Alpes-Côte d'Azur;06062;Fontan;;;;Orgues des Alpes-de-Haute-Provence, Hautes-Alpes, Alpes-Maritimes;117;119;0621 Fl;;;;44.00527320;7.55431580;;;;;;;;;;;;;;;;;;;;;;;;;;;;;;;;;;;;;[];;;;;;;
FR-06069-GRASS-NDAMEV1-1;Grasse;ancienne cathédrale Notre-Dame;Notre-Dame;ancienne cathédrale;NDAMEV;Alpes-Maritimes;06;Provence-Alpes-Côte d'Azur;06069;Grasse;;;1;Orgues des Alpes-de-Haute-Provence, Hautes-Alpes, Alpes-Maritimes;119;121;0622 G1;;;;;;;;;;;;;;;;;;;;;;;;;;;;;;;;;;;;;;;;;;[];;;;;;;
FR-06069-GRASS-NDAMEV1-2;Grasse;ancienne cathédrale Notre-Dame;Notre-Dame;ancienne cathédrale;NDAMEV;Alpes-Maritimes;06;Provence-Alpes-Côte d'Azur;06069;Grasse;;;2;Orgues des Alpes-de-Haute-Provence, Hautes-Alpes, Alpes-Maritimes;121;123;0623 G2;;;;;;;;;;;;;;;;;;;;;;;;;;;;;;;;;;;;;;;;;;[];;;;;;;
FR-06069-GRASS-STLAUR1-X;Grasse;église Saint-Laurent;Saint-Laurent;église;STLAUR;Alpes-Maritimes;06;Provence-Alpes-Côte d'Azur;06069;Grasse;Magagnosc;;;Orgues des Alpes-de-Haute-Provence, Hautes-Alpes, Alpes-Maritimes;151;153;0630 M1;;;;;;;;;;;;;;;;;;;;;;;;;;;;;;;;;;;;;;;;;;[];;;;;;;
FR-06044-C_LOU-STJACQ1-X;La Colle-sur-Loup;église paroissiale Saint-Jacques;Saint-Jacques;église paroissiale;STJACQ;Alpes-Maritimes;06;Provence-Alpes-Côte d'Azur;06044;La Colle-sur-Loup;;;;Orgues des Alpes-de-Haute-Provence, Hautes-Alpes, Alpes-Maritimes;127;129;0626 L2;;;;;;;;;;;;;;;;;;;;;;;;;;;;;;;;;;;;;;;;;;[];;;;;;;
FR-06150-TURBI-STMICH1-X;La Turbie;église Saint-Michel;Saint-Michel;église;STMICH;Alpes-Maritimes;06;Provence-Alpes-Côte d'Azur;06150;La Turbie;;;;Orgues des Alpes-de-Haute-Provence, Hautes-Alpes, Alpes-Maritimes;129;131;0627 L3;;;;43.74484660;7.40083560;;;;;;;;;;;;;;;;;;;;;;;;;;;;;;;;;;;;;[];;;;;;;
FR-06057-ESCAR-STPIER1-X;L'Escarène;église Saint-Pierre-aux-Liens;Saint-Pierre-Aux-Liens;église;STPIER;Alpes-Maritimes;06;Provence-Alpes-Côte d'Azur;06057;L'Escarène;;;;Orgues des Alpes-de-Haute-Provence, Hautes-Alpes, Alpes-Maritimes;147;149;0628 L4;;;;43.83440930;7.35468010;;;;;;;;;;;;;;;PM06000218,PM06000219,PM06002739;;;;;;;;;;;;;;;;;;;;;;[];;;;;;;
FR-06075-LEVEN-STANTO1-X;Levens;église Saint-Antonin;Saint-Antonin;église;STANTO;Alpes-Maritimes;06;Provence-Alpes-Côte d'Azur;06075;Levens;;;;Orgues des Alpes-de-Haute-Provence, Hautes-Alpes, Alpes-Maritimes;149;151;0629 L5;;;;43.85990240;7.22759510;;;;;;;;;;;;;;;;;;;;;;;;;;;;;;;;;;;;;[];;;;;;;
FR-06083-MENTO-CONCEP1-X;Menton;chapelle de la Conception (chapelle des Pénitents Blancs);de-la-Conception;chapelle;CONCEP;Alpes-Maritimes;06;Provence-Alpes-Côte d'Azur;06083;Menton;;;;Orgues des Alpes-de-Haute-Provence, Hautes-Alpes, Alpes-Maritimes;153;155;0631 M2;;;;;;;;;;;;;;;;;;;;;;;;;;;;;;;;;;;;;;;;;;[];;;;;;;
FR-06083-MENTO-PENITE1-X;Menton;chapelle des Pénitents-Noirs (chapelle de la miséricorde);des-Pénitents-Noirs;chapelle;PENITE;Alpes-Maritimes;06;Provence-Alpes-Côte d'Azur;06083;Menton;;;;Orgues des Alpes-de-Haute-Provence, Hautes-Alpes, Alpes-Maritimes;155;157;0632 M3;;;;;;;;;;;;;;;;;;;;PM06000405,PM06002740,PM06002855;;;;;;;;;;;;;;;;;;;;;;[];;;;;;;
FR-06083-MENTO-STJOHN1-X;Menton;église anglicane Saint-John;Saint-John;église anglicane;STJOHN;Alpes-Maritimes;06;Provence-Alpes-Côte d'Azur;06083;Menton;;;;Orgues des Alpes-de-Haute-Provence, Hautes-Alpes, Alpes-Maritimes;163;165;0636 M7;;;;;;;;;;;;;;;;;;;;;;;;;;;;;;;;;;;;;;;;;;[];;;;;;;
FR-06083-MENTO-SCOEUR1-X;Menton;église du Sacré-Cœur;du-Sacré-Cœur;église;SCOEUR;Alpes-Maritimes;06;Provence-Alpes-Côte d'Azur;06083;Menton;;;;Orgues des Alpes-de-Haute-Provence, Hautes-Alpes, Alpes-Maritimes;157;159;0633 M4;;;;;;;;;;;;;;;;;;;;;;;;;;;;;;;;;;;;;;;;;;[];;;;;;;
FR-06083-MENTO-REFORM1-X;Menton;église réformée;;église réformée;REFORM;Alpes-Maritimes;06;Provence-Alpes-Côte d'Azur;06083;Menton;;;;Orgues des Alpes-de-Haute-Provence, Hautes-Alpes, Alpes-Maritimes;161;163;0635 M6;;;;;;;;;;;;;;;;;;;;;;;;;;;;;;;;;;;;;;;;;;[];;;;;;;
FR-06083-MENTO-STMICH1-X;Menton;église Saint-Michel-Archange;Saint-Michel-Archange;église;STMICH;Alpes-Maritimes;06;Provence-Alpes-Côte d'Azur;06083;Menton;;;;Orgues des Alpes-de-Haute-Provence, Hautes-Alpes, Alpes-Maritimes;159;161;0634 M5;;;;43.77884640;7.50566600;;;;;;;;;;;;;;;PM06002741,PM06000398;;;;;;;;;;;;;;;;;;;;;;[];;;;;;;
FR-06088-NICEE-STREPA1-T;Nice;cathédrale Sainte-Réparate;Sainte-Réparate;cathédrale;STREPA;Alpes-Maritimes;06;Provence-Alpes-Côte d'Azur;06088;Nice;;;G.O.;Orgues des Alpes-de-Haute-Provence, Hautes-Alpes, Alpes-Maritimes;165;167;0637 N1;;;;;;;;;;;;;;;;;;;;;;;;;;;;;;;;;;;;;;;;;;[];;;;;;;
FR-06088-NICEE-STREPA1-C;Nice;cathédrale Sainte-Réparate;Sainte-Réparate;cathédrale;STREPA;Alpes-Maritimes;06;Provence-Alpes-Côte d'Azur;06088;Nice;;;O.C.;Orgues des Alpes-de-Haute-Provence, Hautes-Alpes, Alpes-Maritimes;167;169;0638 N2;;;;;;;;;;;;;;;;;;;;;;;;;;;;;;;;;;;;;;;;;;[];;;;;;;
FR-06088-NICEE-PROVID1-X;Nice;chapelle de l'École de la Providence;de-la-Providence;chapelle de l'ecole;PROVID;Alpes-Maritimes;06;Provence-Alpes-Côte d'Azur;06088;Nice;;;;Orgues des Alpes-de-Haute-Provence, Hautes-Alpes, Alpes-Maritimes;171;173;0640 N4;;;;;;;;;;;;;;;;;;;;PM06002743,PM06002745,PM06002744;;;;;;;;;;;;;;;;;;;;;;[];;;;;;;
FR-06088-NICEE-MISERI1-X;Nice;chapelle de la Miséricorde;de-la-Miséricorde;chapelle;MISERI;Alpes-Maritimes;06;Provence-Alpes-Côte d'Azur;06088;Nice;;;;Orgues des Alpes-de-Haute-Provence, Hautes-Alpes, Alpes-Maritimes;201;203;0657 N21;;;;;;;;;;;;;;;;;;;;;;;;;;;;;;;;;;;;;;;;;;[];;;;;;;
FR-06088-NICEE-TRES-S1-X;Nice;chapelle de la Très-Sainte-Trinité (chapelle du Saint-Suaire, chapelle des Pénitents rouges);de-la-Très-Sainte-Trinité;chapelle;TRES-S;Alpes-Maritimes;06;Provence-Alpes-Côte d'Azur;06088;Nice;;;;Orgues des Alpes-de-Haute-Provence, Hautes-Alpes, Alpes-Maritimes;203;205;0658 N22;;;;;;;;;;;;;;;;;;;;PM06002748,PM06002747,PM06002746;;;;;;;;;;;;;;;;;;;;;;[];;;;;;;
FR-06088-NICEE-PENITE1-X;Nice;chapelle des Pénitents-Bleus (chapelle de la confrérie du Saint-Sépulchre);des-Pénitents-Bleus;chapelle;PENITE;Alpes-Maritimes;06;Provence-Alpes-Côte d'Azur;06088;Nice;;;;Orgues des Alpes-de-Haute-Provence, Hautes-Alpes, Alpes-Maritimes;199;201;0656 N20;;;;;;;;;;;;;;;;;;;;PM06002742,PM06004038,PM06004037;;;;;;;;;;;;;;;;;;;;;;[];;;;;;;
FR-06088-NICEE-HOPITA1-X;Nice;chapelle hôpital Sainte-Marie;Hôpital-Sainte-Marie;chapelle;HOPITA;Alpes-Maritimes;06;Provence-Alpes-Côte d'Azur;06088;Nice;;;;Orgues des Alpes-de-Haute-Provence, Hautes-Alpes, Alpes-Maritimes;173;175;0641 N5;;;;;;;;;;;;;;;;;;;;;;;;;;;;;;;;;;;;;;;;;;[];;;;;;;
FR-06088-NICEE-STRITA1-X;Nice;chapelle Sainte-Rita;Sainte-Rita;chapelle;STRITA;Alpes-Maritimes;06;Provence-Alpes-Côte d'Azur;06088;Nice;;;;Orgues des Alpes-de-Haute-Provence, Hautes-Alpes, Alpes-Maritimes;239;241;0676 N40;;;;;;;;;;;;;;;;;;;;PM06003104;;;;;;;;;;;;;;;;;;;;;;[];;;;;;;
FR-06088-NICEE-MUSIQU1-1;Nice;conservatoire national de région;;conservatoire national de région;MUSIQU;Alpes-Maritimes;06;Provence-Alpes-Côte d'Azur;06088;Nice;;;1;Orgues des Alpes-de-Haute-Provence, Hautes-Alpes, Alpes-Maritimes;175;177;0642 N6;;;;;;;;;;;;;;;;;;;;;;;;;;;;;;;;;;;;;;;;;;[];;;;;;;
FR-06088-NICEE-MUSIQU1-2;Nice;conservatoire national de région;;conservatoire national de région;MUSIQU;Alpes-Maritimes;06;Provence-Alpes-Côte d'Azur;06088;Nice;;;2;Orgues des Alpes-de-Haute-Provence, Hautes-Alpes, Alpes-Maritimes;177;179;0643 N7;;;;;;;;;;;;;;;;;;;;;;;;;;;;;;;;;;;;;;;;;;[];;;;;;;
FR-06088-NICEE-MUSIQU1-3;Nice;conservatoire national de région;;conservatoire national de région;MUSIQU;Alpes-Maritimes;06;Provence-Alpes-Côte d'Azur;06088;Nice;;;3;Orgues des Alpes-de-Haute-Provence, Hautes-Alpes, Alpes-Maritimes;179;181;0644 N8;;;;;;;;;;;;;;;;;;;;;;;;;;;;;;;;;;;;;;;;;;[];;;;;;;
FR-06088-NICEE-MUSIQU1-4;Nice;conservatoire national de région;;conservatoire national de région;MUSIQU;Alpes-Maritimes;06;Provence-Alpes-Côte d'Azur;06088;Nice;;;4;Orgues des Alpes-de-Haute-Provence, Hautes-Alpes, Alpes-Maritimes;181;183;0645 N9;;;;;;;;;;;;;;;;;;;;;;;;;;;;;;;;;;;;;;;;;;[];;;;;;;
FR-06088-NICEE-MUSIQU1-5;Nice;conservatoire national de région;;conservatoire national de région;MUSIQU;Alpes-Maritimes;06;Provence-Alpes-Côte d'Azur;06088;Nice;;;5;Orgues des Alpes-de-Haute-Provence, Hautes-Alpes, Alpes-Maritimes;183;185;0646 N10;;;;;;;;;;;;;;;;;;;;;;;;;;;;;;;;;;;;;;;;;;[];;;;;;;
FR-06088-NICEE-ANGLIC1-X;Nice;église anglicane;;église anglicane;ANGLIC;Alpes-Maritimes;06;Provence-Alpes-Côte d'Azur;06088;Nice;;;;Orgues des Alpes-de-Haute-Provence, Hautes-Alpes, Alpes-Maritimes;185;187;0649 N13;;;;;;;;;;;;;;;;;;;;;;;;;;;;;;;;;;;;;;;;;;[];;;;;;;
FR-06088-NICEE-SCOEUR1-X;Nice;église du Sacré-Cœur;du-Sacré-Cœur;église;SCOEUR;Alpes-Maritimes;06;Provence-Alpes-Côte d'Azur;06088;Nice;;;;Orgues des Alpes-de-Haute-Provence, Hautes-Alpes, Alpes-Maritimes;207;209;0660 N24;;;;;;;;;;;;;;;;;;;;;;;;;;;;;;;;;;;;;;;;;;[];;;;;;;
FR-06088-NICEE-JEANNE1-T;Nice;église Jeanne-d'Arc;Jeanne-d'Arc;église;JEANNE;Alpes-Maritimes;06;Provence-Alpes-Côte d'Azur;06088;Nice;;;G.O.;Orgues des Alpes-de-Haute-Provence, Hautes-Alpes, Alpes-Maritimes;235;237;0674 N38;;;;;;;;;;;;;;;;;;;;;;;;;;;;;;;;;;;;;;;;;;[];;;;;;;
FR-06088-NICEE-JEANNE2-C;Nice;église Jeanne-d'Arc;Jeanne-d'Arc;église;JEANNE;Alpes-Maritimes;06;Provence-Alpes-Côte d'Azur;06088;Nice;Roquebrune-Carnoles;;O.C.;Orgues des Alpes-de-Haute-Provence, Hautes-Alpes, Alpes-Maritimes;237;239;0675 N39;;;;;;;;;;;;;;;;;;;;;;;;;;;;;;;;;;;;;;;;;;[];;;;;;;
FR-06088-NICEE-LUTHER1-X;Nice;église luthérienne;;église luthérienne;LUTHER;Alpes-Maritimes;06;Provence-Alpes-Côte d'Azur;06088;Nice;;;;Orgues des Alpes-de-Haute-Provence, Hautes-Alpes, Alpes-Maritimes;187;189;0650 N14;;;;;;;;;;;;;;;;;;;;;;;;;;;;;;;;;;;;;;;;;;[];;;;;;;
FR-06088-NICEE-NDAMEV1-T;Nice;église Notre-Dame;Notre-Dame;église;NDAMEV;Alpes-Maritimes;06;Provence-Alpes-Côte d'Azur;06088;Nice;;;G.O.;Orgues des Alpes-de-Haute-Provence, Hautes-Alpes, Alpes-Maritimes;189;191;0651 N15;;;;43.70262370;7.26399330;;;;;;;;;;;;;;;;;;;;;;;;;;;;;;;;;;;;;[];;;;;;;
FR-06088-NICEE-NDAMEV1-C;Nice;église Notre-Dame;Notre-Dame;église;NDAMEV;Alpes-Maritimes;06;Provence-Alpes-Côte d'Azur;06088;Nice;;;O.C.;Orgues des Alpes-de-Haute-Provence, Hautes-Alpes, Alpes-Maritimes;191;193;0652 N16;;;;43.70262370;7.26399330;;;;;;;;;;;;;;;;;;;;;;;;;;;;;;;;;;;;;[];;;;;;;
FR-06088-NICEE-NDAUXI1-X;Nice;église Notre-Dame-Auxiliatrice;Notre-Dame-Auxiliatrice;église;NDAUXI;Alpes-Maritimes;06;Provence-Alpes-Côte d'Azur;06088;Nice;;;;Orgues des Alpes-de-Haute-Provence, Hautes-Alpes, Alpes-Maritimes;195;197;0654 NI8;;;;43.70860590;7.28134920;;;;;;;;;;;;;;;;;;;;;;;;;;;;;;;;;;;;;[];;;;;;;
FR-06088-NICEE-NDASSO1-X;Nice;église Notre-Dame-de-l'Assomption;Notre-Dame-de-l'Assomption;église;NDASSO;Alpes-Maritimes;06;Provence-Alpes-Côte d'Azur;06088;Nice;;;;Orgues des Alpes-de-Haute-Provence, Hautes-Alpes, Alpes-Maritimes;193;195;0653 N17;;;;;;;;;;;;;;;;;;;;;;;;;;;;;;;;;;;;;;;;;;[];;;;;;;
FR-06088-NICEE-NDPORT1-X;Nice;église Notre-Dame-du-Port;Notre-Dame-du-Port;église;NDPORT;Alpes-Maritimes;06;Provence-Alpes-Côte d'Azur;06088;Nice;;;;Orgues des Alpes-de-Haute-Provence, Hautes-Alpes, Alpes-Maritimes;197;199;0655 N19;;;;43.69860990;7.28551770;;;;;;;;;;;;;;;;;;;;;;;;;;;;;;;;;;;;;[];;;;;;;
FR-06088-NICEE-REFORM1-X;Nice;église réformée;;église réformée;REFORM;Alpes-Maritimes;06;Provence-Alpes-Côte d'Azur;06088;Nice;;;;Orgues des Alpes-de-Haute-Provence, Hautes-Alpes, Alpes-Maritimes;205;207;0659 N23;;;;;;;;;;;;;;;;;;;;;;;;;;;;;;;;;;;;;;;;;;[];;;;;;;
FR-06088-NICEE-STAUGU1-X;Nice;église Saint-Augustin;Saint-Augustin;église;STAUGU;Alpes-Maritimes;06;Provence-Alpes-Côte d'Azur;06088;Nice;;;;Orgues des Alpes-de-Haute-Provence, Hautes-Alpes, Alpes-Maritimes;209;211;0661 N25;;;;;;;;;;;;;;;;;;;;PM06002953;;;;;;;;;;;;;;;;;;;;;;[];;;;;;;
FR-06088-NICEE-STBART1-X;Nice;église Saint-Barthélémy;Saint-Barthélémy;église;STBART;Alpes-Maritimes;06;Provence-Alpes-Côte d'Azur;06088;Nice;;;;Orgues des Alpes-de-Haute-Provence, Hautes-Alpes, Alpes-Maritimes;211;213;0662 N26;;;;43.71866980;7.25495220;;;;;;;;;;;;;;;;;;;;;;;;;;;;;;;;;;;;;[];;;;;;;
FR-06088-NICEE-STHELE1-X;Nice;église Sainte-Hélène;Sainte-Hélène;église;STHELE;Alpes-Maritimes;06;Provence-Alpes-Côte d'Azur;06088;Nice;;;;Orgues des Alpes-de-Haute-Provence, Hautes-Alpes, Alpes-Maritimes;233;235;0673 N37;;;;43.68529880;7.23506910;;;;;;;;;;;;;;;;;;;;;;;;;;;;;;;;;;;;;[];;;;;;;
FR-06088-NICEE-STETIE1-X;Nice;église Saint-Étienne;Saint-Étienne;église;STETIE;Alpes-Maritimes;06;Provence-Alpes-Côte d'Azur;06088;Nice;;;;Orgues des Alpes-de-Haute-Provence, Hautes-Alpes, Alpes-Maritimes;213;215;0663 N27;;;;43.70711570;7.25978430;;;;;;;;;;;;;;;;;;;;;;;;;;;;;;;;;;;;;[];;;;;;;
FR-06088-NICEE-STFRAN1-X;Nice;église Saint-François-de-Paule;Saint-François-de-Paule;église;STFRAN;Alpes-Maritimes;06;Provence-Alpes-Côte d'Azur;06088;Nice;;;;Orgues des Alpes-de-Haute-Provence, Hautes-Alpes, Alpes-Maritimes;215;217;0664 N28;;;;;;;;;;;;;;;;;;;;PM06002981;;;;;;;;;;;;;;;;;;;;;;[];;;;;;;
FR-06088-NICEE-STJACQ1-X;Nice;église Saint-Jacques dite du Gesù;Saint-Jacques-Dite-du-Gesù;église;STJACQ;Alpes-Maritimes;06;Provence-Alpes-Côte d'Azur;06088;Nice;;;;Orgues des Alpes-de-Haute-Provence, Hautes-Alpes, Alpes-Maritimes;217;219;0665 N29;;;;;;;;;;;;;;;;;;;;;;;;;;;;;;;;;;;;;;;;;;[];;;;;;;
FR-06088-NICEE-STJBAP1-T;Nice;église Saint-Jean-Baptiste;Saint-Jean-Baptiste;église;STJBAP;Alpes-Maritimes;06;Provence-Alpes-Côte d'Azur;06088;Nice;;;G.O.;Orgues des Alpes-de-Haute-Provence, Hautes-Alpes, Alpes-Maritimes;219;221;0666 N30;;;;;;;;;;;;;;;;;;;;;;;;;;;;;;;;;;;;;;;;;;[];;;;;;;
FR-06088-NICEE-STJBAP1-C;Nice;église Saint-Jean-Baptiste;Saint-Jean-Baptiste;église;STJBAP;Alpes-Maritimes;06;Provence-Alpes-Côte d'Azur;06088;Nice;;;O.C. 1;Orgues des Alpes-de-Haute-Provence, Hautes-Alpes, Alpes-Maritimes;221;223;0667 N31;;;;;;;;;;;;;;;;;;;;;;;;;;;;;;;;;;;;;;;;;;[];;;;;;;
FR-06088-NICEE-STJBAP1-D;Nice;église Saint-Jean-Baptiste;Saint-Jean-Baptiste;église;STJBAP;Alpes-Maritimes;06;Provence-Alpes-Côte d'Azur;06088;Nice;;;O.C. 2;Orgues des Alpes-de-Haute-Provence, Hautes-Alpes, Alpes-Maritimes;223;225;0668 N32;;;;;;;;;;;;;;;;;;;;;;;;;;;;;;;;;;;;;;;;;;[];;;;;;;
FR-06088-NICEE-STPAUL1-X;Nice;église Saint-Paul;Saint-Paul;église;STPAUL;Alpes-Maritimes;06;Provence-Alpes-Côte d'Azur;06088;Nice;;;;Orgues des Alpes-de-Haute-Provence, Hautes-Alpes, Alpes-Maritimes;225;227;0669 N33;;;;43.71959830;7.24628720;;;;;;;;;;;;;;;;;;;;;;;;;;;;;;;;;;;;;[];;;;;;;
FR-06088-NICEE-STPIER1-T;Nice;église Saint-Pierre-d'Arène;Saint-Pierre-d'Arène;église;STPIER;Alpes-Maritimes;06;Provence-Alpes-Côte d'Azur;06088;Nice;;;G.O.;Orgues des Alpes-de-Haute-Provence, Hautes-Alpes, Alpes-Maritimes;227;229;0670 N34;;;;43.69550850;7.25788560;;;;;;;;;;;;;;;;;;;;;;;;;;;;;;;;;;;;;[];;;;;;;
FR-06088-NICEE-STPIER1-C;Nice;église Saint-Pierre-d'Arène;Saint-Pierre-d'Arène;église;STPIER;Alpes-Maritimes;06;Provence-Alpes-Côte d'Azur;06088;Nice;;;O.C.;Orgues des Alpes-de-Haute-Provence, Hautes-Alpes, Alpes-Maritimes;229;231;0671 N35;;;;43.69550850;7.25788560;;;;;;;;;;;;;;;;;;;;;;;;;;;;;;;;;;;;;[];;;;;;;
FR-06088-NICEE-STROCH1-X;Nice;église Saint-Roch;Saint-Roch;église;STROCH;Alpes-Maritimes;06;Provence-Alpes-Côte d'Azur;06088;Nice;;;;Orgues des Alpes-de-Haute-Provence, Hautes-Alpes, Alpes-Maritimes;231;233;0672 N36;;;;43.71224310;7.29229950;;;;;;;;;;;;;;;;;;;;;;;;;;;;;;;;;;;;;[];;;;;;;
FR-06088-NICEE-SEMINA1-X;Nice;séminaire;;séminaire;SEMINA;Alpes-Maritimes;06;Provence-Alpes-Côte d'Azur;06088;Nice;;;;Orgues des Alpes-de-Haute-Provence, Hautes-Alpes, Alpes-Maritimes;169;171;0639 N3;;;;;;;;;;;;;;;;;;;;;;;;;;;;;;;;;;;;;;;;;;[];;;;;;;
FR-06104-R_MAR-STJOSE1-X;Roquebrune-Cap-Martin;église Saint-Joseph;Saint-Joseph;église;STJOSE;Alpes-Maritimes;06;Provence-Alpes-Côte d'Azur;06104;Roquebrune-Cap-Martin;;;;Orgues des Alpes-de-Haute-Provence, Hautes-Alpes, Alpes-Maritimes;241;243;0677 RI;;;;;;;;;;;;;;;;;;;;;;;;;;;;;;;;;;;;;;;;;;[];;;;;;;
FR-06120-SSTIN-STJEAN1-X;Saint-Étienne-de-Tinée;église Saint-Jean;Saint-Jean;église;STJEAN;Alpes-Maritimes;06;Provence-Alpes-Côte d'Azur;06120;Saint-Étienne-de-Tinée;;;;Orgues des Alpes-de-Haute-Provence, Hautes-Alpes, Alpes-Maritimes;243;245;0678 SI;;;;;;;;;;;;;;;;;;;;PM06002750,PM06001288;;;;;;;;;;;;;;;;;;;;;;[];;;;;;;
FR-06132-SAORG-STCLAU1-X;Saorge;église paroissiale Saint-Claude;Saint-Claude;église paroissiale;STCLAU;Alpes-Maritimes;06;Provence-Alpes-Côte d'Azur;06132;Saorge;;;;Orgues des Alpes-de-Haute-Provence, Hautes-Alpes, Alpes-Maritimes;245;247;0679 S2;;;;;;;;;;;;;;;;;;;;PM06002751,PM06001014,PM06001015;;;;;;;;;;;;;;;;;;;;;;[];;;;;;;
FR-06136-SOSPE-STMICH1-X;Sospel;église Saint-Michel;Saint-Michel;église;STMICH;Alpes-Maritimes;06;Provence-Alpes-Côte d'Azur;06136;Sospel;;;;Orgues des Alpes-de-Haute-Provence, Hautes-Alpes, Alpes-Maritimes;247;249;0680 S3;;;;43.87789910;7.44731650;;;;;;;;;;;;;;;PM06001066,PM06001068,PM06002752;;;;;;;;;;;;;;;;;;;;;;[];;;;;;;
FR-06163-TENDE-ANNONC1-X;Tende;chapelle de l’Annonciation (ancienne chapelle des Pénitents Blancs);de-L’Annonciation;chapelle;ANNONC;Alpes-Maritimes;06;Provence-Alpes-Côte d'Azur;06163;Tende;;;;Orgues des Alpes-de-Haute-Provence, Hautes-Alpes, Alpes-Maritimes;249;251;0681 Tl;;;;;;;;;;;;;;;;;;;;;;;;;;;;;;;;;;;;;;;;;;[];;;;;;;
FR-06163-TENDE-NDASSO1-X;Tende;collégiale Notre-Dame-de-l'Assomption;Notre-Dame-de-l'Assomption;collégiale;NDASSO;Alpes-Maritimes;06;Provence-Alpes-Côte d'Azur;06163;Tende;;;;Orgues des Alpes-de-Haute-Provence, Hautes-Alpes, Alpes-Maritimes;251;253;0682 T2;;;;;;;;;;;;;;;;;;;;PM06001091,PM06001090,PM06002753;;;;;;;;;;;;;;;;;;;;;;[];;;;;;;
FR-06163-TENDE-STMART1-X;Tende;église Saint-Martin-de-La-Brigue;Saint-Martin-de-la-Brigue;église;STMART;Alpes-Maritimes;06;Provence-Alpes-Côte d'Azur;06163;Tende;;;;Orgues des Alpes-de-Haute-Provence, Hautes-Alpes, Alpes-Maritimes;125;127;0625 L1;;;;;;;;;;;;;;;;;;;;PM06002736,PM06000119,PM06000120;;;;;;;;;;;;;;;;;;;;;;[];;;;;;;
FR-06138-T_MER-VILLA-1-X;Théoule-sur-Mer;chapelle de la villa Saint-Camille;de-la-Villa-Saint-Camille;chapelle;VILLA-;Alpes-Maritimes;06;Provence-Alpes-Côte d'Azur;06138;Théoule-sur-Mer;;;;Orgues des Alpes-de-Haute-Provence, Hautes-Alpes, Alpes-Maritimes;253;255;0683 T3;;;;;;;;;;;;;;;;;;;;;;;;;;;;;;;;;;;;;;;;;;[];;;;;;;
FR-06155-VALLA-STANNE1-X;Vallauris;église Sainte-Anne;Sainte-Anne;église;STANNE;Alpes-Maritimes;06;Provence-Alpes-Côte d'Azur;06155;Vallauris;;;;Orgues des Alpes-de-Haute-Provence, Hautes-Alpes, Alpes-Maritimes;257;259;0685 VI;;;;;;;;;;;;;;;;;;;;;;;;;;;;;;;;;;;;;;;;;;[];;;;;;;
FR-06157-VENCE-NATSVI1-X;Vence;ancienne cathédrale Nativité-de-la-Vierge;Nativité-de-la-Vierge;ancienne cathédrale;NATSVI;Alpes-Maritimes;06;Provence-Alpes-Côte d'Azur;06157;Vence;;;;Orgues des Alpes-de-Haute-Provence, Hautes-Alpes, Alpes-Maritimes;259;261;0686 V2;;;;43.72261697;7.11358405;;;;;;;;;;;;;;;PM06002754,PM06001238;;;;;;;;;;;;;;;;;;;;;;[];;;;;;;
FR-06157-VENCE-STHUGH1-X;Vence;église anglicane Saint-Hugh;Saint-Hugh;église anglicane;STHUGH;Alpes-Maritimes;06;Provence-Alpes-Côte d'Azur;06157;Vence;;;;Orgues des Alpes-de-Haute-Provence, Hautes-Alpes, Alpes-Maritimes;261;263;0687 V3;;;;;;;;;;;;;;;;;;;;;;;;;;;;;;;;;;;;;;;;;;[];;;;;;;
FR-06158-V_VAR-STJEAN1-X;Villars-sur-Var;église Saint-Jean;Saint-Jean;église;STJEAN;Alpes-Maritimes;06;Provence-Alpes-Côte d'Azur;06158;Villars-sur-Var;;;;Orgues des Alpes-de-Haute-Provence, Hautes-Alpes, Alpes-Maritimes;263;265;0688 V4;;;;;;;;;;;;;;;;;;;;PM06002756,PM06002755;;;;;;;;;;;;;;;;;;;;;;[];;;;;;;
FR-06159-V_MER-STMICH1-X;Villefranche-sur-Mer;église Saint-Michel;Saint-Michel;église;STMICH;Alpes-Maritimes;06;Provence-Alpes-Côte d'Azur;06159;Villefranche-sur-Mer;;;;Orgues des Alpes-de-Haute-Provence, Hautes-Alpes, Alpes-Maritimes;265;267;0689 V5;;;;43.70392810;7.31131840;;;;;;;;;;;;;;;PM06001247,PM06001246,PM06001283,PM06002757;;;;;;;;;;;;;;;;;;;;;;[];;;;;;;
FR-07010-ANNON-NDAMEV1-T;Annonay;église Notre-Dame;Notre-Dame;église;NDAMEV;Ardèche;07;Auvergne-Rhône-Alpes;07010;Annonay;;;G.O.;Ouvrage Ardèche;05-07;;07.01;;;;;;;;;;;;;;;;;;;;PM07000013,PM07000449;;;;;;;;;;;;;;;;;;;;;;[];;;;;;;
FR-07010-ANNON-NDAMEV1-C;Annonay;église Notre-Dame;Notre-Dame;église;NDAMEV;Ardèche;07;Auvergne-Rhône-Alpes;07010;Annonay;;;O.C.;Ouvrage Ardèche;08-09;;07.02;;;;;;;;;;;;;;;;;;;;PM07000448,PM07000012;;;;;;;;;;;;;;;;;;;;;;[];;;;;;;
FR-07010-ANNON-REFORM1-X;Annonay;église Réformée;;église réformée;REFORM;Ardèche;07;Auvergne-Rhône-Alpes;07010;Annonay;;;;Ouvrage Ardèche;10;;07.03;;;;;;;;;;;;;;;;;;;;;;;;;;;;;;;;;;;;;;;;;;[];;;;;;;
FR-07010-ANNON-STFRAN1-X;Annonay;église Saint-François d'Assise;Saint-François-d'Assise;église;STFRAN;Ardèche;07;Auvergne-Rhône-Alpes;07010;Annonay;;;;Ouvrage Ardèche;11;;07.04;;;;;;;;;;;;;;;;;;;;;;;;;;;;;;;;;;;;;;;;;;[];;;;;;;
FR-07010-ANNON-STJOSE1-X;Annonay;église Saint-Joseph du Cance;Saint-Joseph-du-Cance;église;STJOSE;Ardèche;07;Auvergne-Rhône-Alpes;07010;Annonay;;;;Ouvrage Ardèche;12;;07.05;;;;;;;;;;;;;;;;;;;;;;;;;;;;;;;;;;;;;;;;;;[];;;;;;;
FR-07019-AUBEN-EGLISE1-X;Aubenas;église;;église;EGLISE;Ardèche;07;Auvergne-Rhône-Alpes;07019;Aubenas;Pont d'Aubenas;;;Ouvrage Ardèche;32;;07.22;A vérifier : nom église;;;;;;;;;;;;;;;;;;;;;;;;;;;;;;;;;;;;;;;;;[];;;;;;;
FR-07019-AUBEN-STLAUR1-X;Aubenas;église Saint-Laurent;Saint-Laurent;église;STLAUR;Ardèche;07;Auvergne-Rhône-Alpes;07019;Aubenas;;;;Ouvrage Ardèche;13-14;;07.06;A vérifier : nom église;;;44.61981740;4.38888830;;;;;;;;;;;;;;;;;;;;;;;;;;;;;;;;;;;;;[];;;;;;;
FR-07019-AUBEN-PETIT-1-X;Aubenas;Petit Séminaire;Petit-Séminaire;None;PETIT-;Ardèche;07;Auvergne-Rhône-Alpes;07019;Aubenas;;;;Ouvrage Ardèche;15;;07.07;;;;;;;;;;;;;;;;;;;;;;;;;;;;;;;;;;;;;;;;;;[];;;;;;;
FR-07041-B_ANN-EGLISE1-X;Boulieu-lès-Annonay;église;;église;EGLISE;Ardèche;07;Auvergne-Rhône-Alpes;07041;Boulieu-lès-Annonay;;;;Ouvrage Ardèche;16;;07.08;;;;45.27062030;4.66653580;;;;;;;;;;;;;;;;;;;;;;;;;;;;;;;;;;;;;[];;;;;;;
FR-07042-B_AND-PRESEN1-X;Bourg-Saint-Andéol;Couvent de la Présentation de Marie;de-la-Présentation-de-Marie;couvent;PRESEN;Ardèche;07;Auvergne-Rhône-Alpes;07042;Bourg-Saint-Andéol;;;;Ouvrage Ardèche;17;;07.09;;;;;;;;;;;;;;;;;;;;;;;;;;;;;;;;;;;;;;;;;;[];;;;;;;
FR-07042-B_AND-STANDE1-X;Bourg-Saint-Andéol;église Saint-Andéol;Saint-Andéol;église;STANDE;Ardèche;07;Auvergne-Rhône-Alpes;07042;Bourg-Saint-Andéol;;;;Ouvrage Ardèche;18-19;;07.10;;;;;;;;;;;;;;;;;;;;PM07000450,PM07000385,PM07000126;;;;;;;;;;;;;;;;;;;;;;[];;;;;;;
FR-07048-CHALE-EGLISE1-X;Chalencon;église;;église;EGLISE;Ardèche;07;Auvergne-Rhône-Alpes;07048;Chalencon;;;;Ouvrage Ardèche;20;;07.11;;;;44.87853580;4.57507340;;;;;;;;;;;;;;;;;;;;;;;;;;;;;;;;;;;;;[];;;;;;;
FR-07055-C_RHO-EGLISE1-X;Charmes-sur-Rhône;église;;église;EGLISE;Ardèche;07;Auvergne-Rhône-Alpes;07055;Charmes-sur-Rhône;;;;Ouvrage Ardèche;21;;07.12;;;;44.86245990;4.83356350;;;;;;;;;;;;;;;;;;;;;;;;;;;;;;;;;;;;;[];;;;;;;
FR-07064-CHEYL-EGLISE1-X;Le Cheylard;église;;église;EGLISE;Ardèche;07;Auvergne-Rhône-Alpes;07064;Le Cheylard;;;;Ouvrage Ardèche;29;;07.19;;;;44.90546169;4.42297115;;;;;;;;;;;;;;;;;;;;;;;;;;;;;;;;;;;;;[];;;;;;;
FR-07078-DAVEZ-USINES1-X;Davézieux;Chapelle des Usines;des-Usines;chapelle;USINES;Ardèche;07;Auvergne-Rhône-Alpes;07078;Davézieux;VIDALON-LèS-ANNONAY;;;Ouvrage Ardèche;54-57;;07.39;;;;45.25547160;4.70637870;;;;;;;;;;;;;;;;;;;;;;;;;;;;;;;;;;;;;[];;;;;;;
FR-07078-DAVEZ-EGLISE1-X;Davézieux;église;;église;EGLISE;Ardèche;07;Auvergne-Rhône-Alpes;07078;Davézieux;;;;Ouvrage Ardèche;22;;07.13;;;;45.25547160;4.70637870;;;;;;;;;;;;;;;;;;;;;;;;;;;;;;;;;;;;;[];;;;;;;
FR-07079-DESAI-REFORM1-X;Désaignes;église Réformée;;église réformée;REFORM;Ardèche;07;Auvergne-Rhône-Alpes;07079;Désaignes;;;;Ouvrage Ardèche;23;;07.14;;;;44.99488680;4.51744630;;;;;;;;;;;;;;;;;;;;;;;;;;;;;;;;;;;;;[];;;;;;;
FR-07107-JAUJA-EGLISE1-X;Jaujac;église;;église;EGLISE;Ardèche;07;Auvergne-Rhône-Alpes;07107;Jaujac;;;;Ouvrage Ardèche;24-25;;07.15;;;;44.63564990;4.25543890;;;;;;;;;;;;;;;;;;;;;;;;;;;;;;;;;;;;;[];;;;;;;
FR-07126-LAGOR-REFORM1-X;Lagorce;église Réformée;;église réformée;REFORM;Ardèche;07;Auvergne-Rhône-Alpes;07126;Lagorce;;;;Ouvrage Ardèche;26;;07.16;;;;44.44695820;4.41716520;;;;;;;;;;;;;;;PM07000662;;;;;;;;;;;;;;;;;;;;;;[];;;;;;;
FR-07128-LALOU-STFRAN1-X;Lalouvesc;Basilique Saint-François Régis;Saint-François-Régis;basilique;STFRAN;Ardèche;07;Auvergne-Rhône-Alpes;07128;Lalouvesc;;;;Ouvrage Ardèche;27;;07.17;;;;;;;;;;;;;;;;;;;;;;;;;;;;;;;;;;;;;;;;;;[];;;;;;;
FR-07129-LAMAS-EGLISE1-X;Lamastre;église;;église;EGLISE;Ardèche;07;Auvergne-Rhône-Alpes;07129;Lamastre;;;;Ouvrage Ardèche;28;;07.18;;;;44.98563740;4.58484010;;;;;;;;;;;;;;;;;;;;;;;;;;;;;;;;;;;;;[];;;;;;;
FR-07186-PRIVA-REFORM1-X;Privas;église Réformée;;église réformée;REFORM;Ardèche;07;Auvergne-Rhône-Alpes;07186;Privas;;;;Ouvrage Ardèche;33;;07.23;;;;44.73541310;4.59640720;;;;;;;;;;;;;;;;;;;;;;;;;;;;;;;;;;;;;[];;;;;;;
FR-07186-PRIVA-STTHOM1-X;Privas;église Saint-Thomas;Saint-Thomas;église;STTHOM;Ardèche;07;Auvergne-Rhône-Alpes;07186;Privas;;;;Ouvrage Ardèche;34-36;;07.24;;;;;;;;;;;;;;;;;;;;,PM07000757;;;;;;;;;;;;;;;;;;;;;;[];;;;;;;
FR-07186-PRIVA-HOPITA1-X;Privas;Hôpital Psychiatrique;Hôpital-Psychiatrique;None;HOPITA;Ardèche;07;Auvergne-Rhône-Alpes;07186;Privas;;;;Ouvrage Ardèche;37;;07.25;;;;;;;;;;;;;;;;;;;;;;;;;;;;;;;;;;;;;;;;;;[];;;;;;;
FR-07204-SSAGR-EGLISE1-X;Saint-Agrève;église;;église;EGLISE;Ardèche;07;Auvergne-Rhône-Alpes;07204;Saint-Agrève;;;;Ouvrage Ardèche;38;;07.26;;;;45.01179010;4.39680780;;;;;;;;;;;;;;;;;;;;;;;;;;;;;;;;;;;;;[];;;;;;;
FR-07231-SSFON-EGLISE1-X;Saint-Étienne-de-Fontbellon;église;;église;EGLISE;Ardèche;07;Auvergne-Rhône-Alpes;07231;Saint-Étienne-de-Fontbellon;;;;Ouvrage Ardèche;39;;07.27;;;;44.62917140;4.41048120;;;;;;;;;;;;;;;;;;;;;;;;;;;;;;;;;;;;;[];;;;;;;
FR-07254-SSSER-EGLISE1-X;Saint-Julien-du-Serre;église;;église;EGLISE;Ardèche;07;Auvergne-Rhône-Alpes;07254;Saint-Julien-du-Serre;;;;Ouvrage Ardèche;40;;07.28;;;;44.65675000;4.41061760;;;;;;;;;;;;;;;;;;;;;;;;;;;;;;;;;;;;;[];;;;;;;
FR-07269-SSVAL-EGLISE1-X;Saint-Martin-de-Valamas;église;;église;EGLISE;Ardèche;07;Auvergne-Rhône-Alpes;07269;Saint-Martin-de-Valamas;;;;Ouvrage Ardèche;41;;07.29;;;;44.93779986;4.36901427;;;;;;;;;;;;;;;;;;;;;;;;;;;;;;;;;;;;;[];;;;;;;
FR-07309-SATIL-EGLISE1-X;Satillieu;église;;église;EGLISE;Ardèche;07;Auvergne-Rhône-Alpes;07309;Satillieu;;;;Ouvrage Ardèche;42;;07.30;;;;45.15059610;4.61498270;;;;;;;;;;;;;;;;;;;;;;;;;;;;;;;;;;;;;[];;;;;;;
FR-07313-SERRI-EGLISE1-X;Serrières;église;;église;EGLISE;Ardèche;07;Auvergne-Rhône-Alpes;07313;Serrières;;;;Ouvrage Ardèche;43;;07.31;;;;45.31744820;4.76388560;;;;;;;;;;;;;;;;;;;;;;;;;;;;;;;;;;;;;[];;;;;;;
FR-07319-TEILL-CIMENT1-X;Le Teil;Chapelle de la Cimenterie Lafarge;de-la-Cimenterie-Lafarge;chapelle;CIMENT;Ardèche;07;Auvergne-Rhône-Alpes;07319;Le Teil;;;;Ouvrage Ardèche;30;;07.20;;;;;;;;;;;;;;;;;;;;;;;;;;;;;;;;;;;;;;;;;;[];;;;;;;
FR-07322-THUEY-EGLISE1-X;Thueyts;église;;église;EGLISE;Ardèche;07;Auvergne-Rhône-Alpes;07322;Thueyts;;;;Ouvrage Ardèche;44;;07.32;;;;44.67657590;4.22160680;;;;;;;;;;;;;;;;;;;;;;;;;;;;;;;;;;;;;[];;;;;;;
FR-07324-T_RHO-STJULI1-X;Tournon-sur-Rhône;Collégiale Saint-Julien;Saint-Julien;collégiale;STJULI;Ardèche;07;Auvergne-Rhône-Alpes;07324;Tournon-sur-Rhône;;;;Ouvrage Ardèche;45-46;;07.33;;;;45.06828490;4.83015480;;;;;;;;;;;;;;;PM07000451,PM07000292;;;;;;;;;;;;;;;;;;;;;;[];;;;;;;
FR-07324-T_RHO-GABRIE1-X;Tournon-sur-Rhône;Lycée Gabriel-Fauré;Gabriel-Fauré;lycée;GABRIE;Ardèche;07;Auvergne-Rhône-Alpes;07324;Tournon-sur-Rhône;;;;Ouvrage Ardèche;47-48;;07.34;;;;;;;;;;;;;;;;;;;;PM07000452,PM07000453;;;;;;;;;;;;;;;;;;;;;;[];;;;;;;
FR-07331-V_BAI-CLARIS1-X;Vals-les-Bains;Couvent des Clarisses;des-Clarisses;couvent;CLARIS;Ardèche;07;Auvergne-Rhône-Alpes;07331;Vals-les-Bains;;;;Ouvrage Ardèche;49;;07.35;;;;;;;;;;;;;;;;;;;;;;;;;;;;;;;;;;;;;;;;;;[];;;;;;;
FR-07331-V_BAI-STMART1-X;Vals-les-Bains;église Saint-Martin;Saint-Martin;église;STMART;Ardèche;07;Auvergne-Rhône-Alpes;07331;Vals-les-Bains;;;;Ouvrage Ardèche;50-51;;07.36;;;;44.66124220;4.36655960;;;;;;;;;;;;;;;,PM07001000;;;;;;;;;;;;;;;;;;;;;;[];;;;;;;
FR-07334-VANSS-EGLISE1-X;Les Vans;église;;église;EGLISE;Ardèche;07;Auvergne-Rhône-Alpes;07334;Les Vans;;;;Ouvrage Ardèche;31;;07.21;;;;44.40136460;4.11262460;;;;;;;;;;;;;;;;;;;;;;;;;;;;;;;;;;;;;[];;;;;;;
FR-07338-V_VIV-REFORM1-X;Vernoux-en-Vivarais;église Réformée;;église réformée;REFORM;Ardèche;07;Auvergne-Rhône-Alpes;07338;Vernoux-en-Vivarais;;;;Ouvrage Ardèche;52;;07.37;;;;44.89460860;4.64433980;;;;;;;;;;;;;;;;;;;;;;;;;;;;;;;;;;;;;[];;;;;;;
FR-07339-VESSE-EGLISE1-X;Vesseaux;église;;église;EGLISE;Ardèche;07;Auvergne-Rhône-Alpes;07339;Vesseaux;;;;Ouvrage Ardèche;53;;07.38;;;;44.62917140;4.41048120;;;;;;;;;;;;;;;;;;;;;;;;;;;;;;;;;;;;;[];;;;;;;
FR-07346-VIVIE-STVINC1-T;Viviers;Cathédrale Saint-Vincent;Saint-Vincent;cathédrale;STVINC;Ardèche;07;Auvergne-Rhône-Alpes;07346;Viviers;;;G.O.;Ouvrage Ardèche;58-59;;07.40;;;;;;;;;;;;;;;;;;;;;;;;;;;;;;;;;;;;;;;;;;[];;;;;;;
FR-07346-VIVIE-STVINC1-C;Viviers;Cathédrale Saint-Vincent;Saint-Vincent;cathédrale;STVINC;Ardèche;07;Auvergne-Rhône-Alpes;07346;Viviers;;;O.C.;Ouvrage Ardèche;60;;07.41;;;;;;;;;;;;;;;;;;;;;;;;;;;;;;;;;;;;;;;;;;[];;;;;;;
FR-07346-VIVIE-DU-GRA1-X;Viviers;chapelle du grand séminaire;du-Grand-Séminaire;chapelle;DU-GRA;Ardèche;07;Auvergne-Rhône-Alpes;07346;Viviers;;;;Ouvrage Ardèche;61;;07.42;;;;;;;;;;;;;;;;;;;;;;;;;;;;;;;;;;;;;;;;;;[];;;;;;;
FR-09032-A_THE-STVINC1-X;Ax-les-Thermes;église Saint-Vincent;Saint-Vincent;église;STVINC;Ariège;09;Occitanie;09032;Ax-les-Thermes;;;;Orgues de l'Ariège;;1;;;;;42.72042670;1.83975940;;;;;;;;;;;;;;;;;;;;;;;;;;;;;;;;;;;;;[];;;;;;;
FR-09060-BNACC-STPIER1-X;Bonnac;église Saint-Pierre;Saint-Pierre;église;STPIER;Ariège;09;Occitanie;09060;Bonnac;Salvayre;;;Orgues de l'Ariège;;18;;;;;;;;;;;;;;;;;;;;;;;;;;;;;;;;;;;;;;;;;;;[];;;;;;;
FR-09085-C_COU-STPIER1-X;Castillon-en-Couserans;église Saint-Pierre;Saint-Pierre;église;STPIER;Ariège;09;Occitanie;09085;Castillon-en-Couserans;;;;Orgues de l'Ariège;;2;;;;;;;;;;;;;;;;;;;;;;;;;;;;;;;;;;;;;;;;;;;[];;;;;;;
FR-09105-D_ARI-STSERN1-X;Daumazan-sur-Arize;église Saint-Sernin;Saint-Sernin;église;STSERN;Ariège;09;Occitanie;09105;Daumazan-sur-Arize;;;;Orgues de l'Ariège;;3;;;;;;;;;;;;;;;;;;;;;;;;;;;;;;;;;;;;;;;;;;;[];;;;;;;
FR-09122-FOIXX-STVOLU1-T;Foix;église Saint-Volusien;Saint-Volusien;église;STVOLU;Ariège;09;Occitanie;09122;Foix;;;G.O.;Orgues de l'Ariège;;4;;;;;42.96658710;1.60639880;;;;;;;;;;;;;;;PM09000983,PM09000982,PM09000984;;;;;;;;;;;;;;;;;;;;;;[];;;;;;;
FR-09122-FOIXX-STVOLU1-C;Foix;église Saint-Volusien;Saint-Volusien;église;STVOLU;Ariège;09;Occitanie;09122;Foix;;;O.C.;Orgues de l'Ariège;;5;;;;;42.96658710;1.60639880;;;;;;;;;;;;;;;;;;;;;;;;;;;;;;;;;;;;;[];;;;;;;
FR-09160-LAVEL-NDASSO1-X;Lavelanet;église Notre-Dame-de-l'Assomption;Notre-Dame-de-l'Assomption;église;NDASSO;Ariège;09;Occitanie;09160;Lavelanet;;;;Orgues de l'Ariège;;6;;;;;42.90761070;1.82180560;;;;;;;;;;;;;;;PM09000986,PM09000985,PM09000987;;;;;;;;;;;;;;;;;;;;;;[];;;;;;;
FR-09167-L_LEZ-STJBAP1-X;Lézat-sur-Lèze;église Saint-Jean-Baptiste;Saint-Jean-Baptiste;église;STJBAP;Ariège;09;Occitanie;09167;Lézat-sur-Lèze;;;;Orgues de l'Ariège;;7;;;;;;;;;;;;;;;;;;;;;;;;;;;;;;;;;;;;;;;;;;;[];;;;;;;
FR-09194-MIREP-STMAUR1-X;Mirepoix;cathédrale Saint-Maurice;Saint-Maurice;cathédrale;STMAUR;Ariège;09;Occitanie;09194;Mirepoix;;;;Orgues de l'Ariège;;8;;;;;43.08634310;1.87599790;;;;;;;;;;;;;;;PM09000988,PM09000989,PM09000424;;;;;;;;;;;;;;;;;;;;;;[];;;;;;;
FR-09199-MTAUT-STMICH1-X;Montaut;église Saint-Michel;Saint-Michel;église;STMICH;Ariège;09;Occitanie;09199;Montaut;;;;Orgues de l'Ariège;;9;;;;;43.18700790;1.64379480;;;;;;;;;;;;;;;;;;;;;;;;;;;;;;;;;;;;;[];;;;;;;
FR-09223-OUSTT-NDOUST1-X;Oust;église Notre-Dame de Vic d'Oust;Notre-Dame-de-Vic-d'Oust;église;NDOUST;Ariège;09;Occitanie;09223;Oust;;;;Orgues de l'Ariège;;10;;;;;;;;;;;;;;;;;;;;;;;;;;;;;;;;;;;;;;;;;;;[];;;;;;;
FR-09225-PAMIE-STANTO1-T;Pamiers;cathédrale saint-Antonin;Saint-Antonin;cathédrale;STANTO;Ariège;09;Occitanie;09225;Pamiers;;;G.O.;Orgues de l'Ariège;;11;;;;;43.11600290;1.61079520;;;;;;;;;;;;;;;PM09000991,PM09000532;;;;;;;;;;;;;;;;;;;;;;[];;;;;;;
FR-09225-PAMIE-STANTO1-C;Pamiers;cathédrale saint-Antonin;Saint-Antonin;cathédrale;STANTO;Ariège;09;Occitanie;09225;Pamiers;;;O.C.;Orgues de l'Ariège;;12;;;;;43.11600290;1.61079520;;;;;;;;;;;;;;;;;;;;;;;;;;;;;;;;;;;;;[];;;;;;;
FR-09225-PAMIE-JEAN-X1-X;Pamiers;chapelle du collège Jean XXIII;Jean-Xxiii;chapelle du college;JEAN-X;Ariège;09;Occitanie;09225;Pamiers;;;;Orgues de l'Ariège;;14;;;;;;;;;;;;;;;;;;;;;;;;;;;;;;;;;;;;;;;;;;;[];;;;;;;
FR-09225-PAMIE-NDCAMP1-X;Pamiers;Notre-Dame du Camp;Notre-Dame-du-Camp;None;NDCAMP;Ariège;09;Occitanie;09225;Pamiers;;;;Orgues de l'Ariège;;13;;;;;;;;;;;;;;;;;;;;;PM09000993,PM09000537,PM09000992;;;;;;;;;;;;;;;;;;;;;;[];;;;;;;
FR-09261-SSGIR-STGIRO1-X;Saint-Girons;église Saint-Girons;Saint-Girons;église;STGIRO;Ariège;09;Occitanie;09261;Saint-Girons;;;;Orgues de l'Ariège;;15;;;;;42.98646030;1.14405000;;;;;;;;;;;;;;;PM09000994,PM09000580;;;;;;;;;;;;;;;;;;;;;;[];;;;;;;
FR-09268-SSLIZ-NDSEDE1-X;Saint-Lizier;église Notre-Dame-de-la-Sède;Notre-Dame-de-la-Sède;église;NDSEDE;Ariège;09;Occitanie;09268;Saint-Lizier;;;;Orgues de l'Ariège;;16;;;;;43.00184540;1.13784640;;;;;;;;;;;;;;;PM09000907,PM09000995,PM09000645;;;;;;;;;;;;;;;;;;;;;;[];;;;;;;
FR-09282-SAVER-TEMPLE1-X;Saverdun;temple protestant;;temple protestant;TEMPLE;Ariège;09;Occitanie;09282;Saverdun;;;;Orgues de l'Ariège;;17;;;;;;;;;;;;;;;;;;;;;,PM09005109;;;;;;;;;;;;;;;;;;;;;;[];;;;;;;
FR-09334-V_SOS-NDAMEV1-X;Val-de-Sos;église Notre-Dame;Notre-Dame;église;NDAMEV;Ariège;09;Occitanie;09334;Val-de-Sos;Vicdessos;;;Orgues de l'Ariège;;19;;;;;;;;;;;;;;;;;;;;;PM09000996,PM09000841;;;;;;;;;;;;;;;;;;;;;;[];;;;;;;
FR-10018-AUXON-STLEUU1-X;Auxon;église Saint-Leu;Saint-Leu;église;STLEUU;Aube;10;Grand Est;10018;Auxon;;;;Ouvrage Aube 1986;26;27;;;;;;;;;;;;;;;;;;;;;;;;;;;;;;;;;;;;;;;;;;;[];;;;;;;
FR-10033-B_AUB-STMACL1-X;Bar-sur-Aube;église Saint-Maclou;Saint-Maclou;église;STMACL;Aube;10;Grand Est;10033;Bar-sur-Aube;;;;Ouvrage Aube 1986;28;31;;;;;48.23151056136363;4.7069920443181825;way;424887775;48.23151056136363;4.7069920443181825;;;;;;;;;;;;;;;;;;;;;;;;;;;;;;;;;[];;;;;;;
FR-10033-B_AUB-STPIER1-T;Bar-sur-Aube;église Saint-Pierre;Saint-Pierre;église;STPIER;Aube;10;Grand Est;10033;Bar-sur-Aube;;;G.O.;Ouvrage Aube 1986;32;39;;;;;48.23331420909089;4.708539084848484;way;424889597;48.23331420909089;4.708539084848484;;;;;;;;;;;PM10000170,PM10000171,PM10004969;;;;;;;;;;;;;;;;;;;;;;[];;;;;;;
FR-10033-B_AUB-STPIER1-C;Bar-sur-Aube;église Saint-Pierre;Saint-Pierre;église;STPIER;Aube;10;Grand Est;10033;Bar-sur-Aube;;;O.C.;Ouvrage Aube 1986;40;41;;;;;48.23331420909089;4.708539084848484;way;424889597;48.23331420909089;4.708539084848484;;;;;;;;;;;;;;;;;;;;;;;;;;;;;;;;;[];;;;;;;
FR-10034-B_SEI-STETIE1-X;Bar-sur-Seine;église Saint-Étienne;Saint-Étienne;église;STETIE;Aube;10;Grand Est;10034;Bar-sur-Seine;;;;Ouvrage Aube 1986;42;49;;;;;48.11514203571429;4.375428845238095;way;283380054;48.11514203571429;4.375428845238095;;;;;;;;;;;PM10004970,PM10000191,PM10000193;;;;;;;;;;;;;;;;;;;;;;[];;;;;;;
FR-10051-BOUIL-STLAUR1-X;Bouilly;église Saint-Laurent;Saint-Laurent;église;STLAUR;Aube;10;Grand Est;10051;Bouilly;;;;Ouvrage Aube 1986;50;51;;;;;48.19299360194175;3.9979368737864074;way;190523278;48.19299360194175;3.9979368737864074;;;;;;;;;;;;;;;;;;;;;;;;;;;;;;;;;[];;;;;;;
FR-10055-BZGUI-STVALI1-X;Bourguignons;église Saint-Valier;Saint-Valier;église;STVALI;Aube;10;Grand Est;10055;Bourguignons;;;;Ouvrage Aube 1986;52;53;;;;;;;;;;;;;;;;;;;;;PM10004972,PM10004973;;;;;;;;;;;;;;;;;;;;;;[];;;;;;;
FR-10079-CHANN-NDAMEV1-X;Channes;église Notre-Dame;Notre-Dame;église;NDAMEV;Aube;10;Grand Est;10079;Channes;;;;Ouvrage Aube 1986;54;55;;;;;;;;;;;;;;;;;;;;;;;;;;;;;;;;;;;;;;;;;;;[];;;;;;;
FR-10080-CHAOU-STJBAP1-X;Chaource;église Saint-Jean-Baptiste;Saint-Jean-Baptiste;église;STJBAP;Aube;10;Grand Est;10080;Chaource;;;;Ouvrage Aube 1986;56;61;;;;;48.05803589333331;4.136636053333332;way;393178600;48.05803589333331;4.136636053333332;;;;;;;;;;;PM10004974,PM10000442,PM10000441;;;;;;;;;;;;;;;;;;;;;;[];;;;;;;
FR-10094-CHAVA-STGEOR1-X;Chavanges;église Saint-Georges;Saint-Georges;église;STGEOR;Aube;10;Grand Est;10094;Chavanges;;;;Ouvrage Aube 1986;62;63;;;;;48.508025960000005;4.5732032899999995;way;224361272;48.508025960000005;4.5732032899999995;;;;;;;;;;;PM10004975,PM10003631;;;;;;;;;;;;;;;;;;;;;;[];;;;;;;
FR-10099-C_PRE-NDASSO1-X;Chessy-les-Prés;église Notre-Dame-de-l'Assomption;Notre-Dame-de-l'Assomption;église;NDASSO;Aube;10;Grand Est;10099;Chessy-les-Prés;;;;Ouvrage Aube 1986;64;69;;;;;;;;;;;;;;;;;;;;;PM10004976,PM10000599;;;;;;;;;;;;;;;;;;;;;;[];;;;;;;
FR-10102-C_FOS-STLOUV1-X;Colombé-la-Fosse;église Saint-Louvent;Saint-Louvent;église;STLOUV;Aube;10;Grand Est;10102;Colombé-la-Fosse;;;;Ouvrage Aube 1986;70;71;;;;;48.26432305588236;4.7906460558823545;way;425318618;48.26432305588236;4.7906460558823545;;;;;;;;;;;;;;;;;;;;;;;;;;;;;;;;;[];;;;;;;
FR-10120-CUSSA-STLEGE1-X;Cussangy;église Saint-Léger;Saint-Léger;église;STLEGE;Aube;10;Grand Est;10120;Cussangy;;;;Ouvrage Aube 1986;72;73;;;;;48.012957421874994;4.103023646874999;way;315270510;48.012957421874994;4.103023646874999;;;;;;;;;;;PM10004977,PM10000684;;;;;;;;;;;;;;;;;;;;;;[];;;;;;;
FR-10123-DIENV-STQUEN1-X;Dienville;église Saint-Quentin;Saint-Quentin;église;STQUEN;Aube;10;Grand Est;10123;Dienville;;;;Ouvrage Aube 1986;74;75;;;;;48.34900400;4.53119650;;;;;;;;;;;;;;;PM10004978,PM10000711,PM10003696;;;;;;;;;;;;;;;;;;;;;;[];;;;;;;
FR-10140-E_CHA-STPIER1-X;Ervy-le-Châtel;église Saint-Pierre-ès-Liens;Saint-Pierre-Ès-Liens;église;STPIER;Aube;10;Grand Est;10140;Ervy-le-Châtel;;;;Ouvrage Aube 1986;76;81;;;;;48.040498626666675;3.9122234133333347;way;430834479;48.040498626666675;3.9122234133333347;;;;;;;;;;;PM10004979,PM10000788,PM10000791;;;;;;;;;;;;;;;;;;;;;;[];;;;;;;
FR-10141-ESSOY-STREMY1-X;Essoyes;église Saint-Rémy;Saint-Rémy;église;STREMY;Aube;10;Grand Est;10141;Essoyes;;;;Ouvrage Aube 1986;82;83;;;;;48.05724970;4.53148390;;;;;;;;;;;;;;;PM10004981,PM10004980;;;;;;;;;;;;;;;;;;;;;;[];;;;;;;
FR-10170-G_SEI-STGERM1-X;Gyé-sur-Seine;église Saint-Germain;Saint-Germain;église;STGERM;Aube;10;Grand Est;10170;Gyé-sur-Seine;;;;Ouvrage Aube 1986;84;87;;;;;;;;;;;;;;;;;;;;;PM10004982,PM10000891;;;;;;;;;;;;;;;;;;;;;;[];;;;;;;
FR-10179-JEUGN-STBART1-X;Jeugny;église Saint-Barthélemy;Saint-Barthélemy;église;STBART;Aube;10;Grand Est;10179;Jeugny;;;;Ouvrage Aube 1986;88;89;;;;;48.13034800000001;4.038023612500001;way;517349806;48.13034800000001;4.038023612500001;;;;;;;;;;;;;;;;;;;;;;;;;;;;;;;;;[];;;;;;;
FR-10187-LANDR-NDAMEV1-X;Landreville;église Notre-Dame;Notre-Dame;église;NDAMEV;Aube;10;Grand Est;10187;Landreville;;;;Ouvrage Aube 1986;90;91;;;;;;;;;;;;;;;;;;;;;PM10004983,PM10004984;;;;;;;;;;;;;;;;;;;;;;[];;;;;;;
FR-10211-MACEY-ORGUE-1-X;Macey;orgue de salon;orgue-de-salon;None;ORGUE-;Aube;10;Grand Est;10211;Macey;;;;Ouvrage Aube 1986;92;93;;;;;;;;;;;;;;;;;;;;;;;;;;;;;;;;;;;;;;;;;;;[];;;;;;;
FR-10214-MAGNI-STVINE1-X;Magnicourt;église Saint-Vinebaud;Saint-Vinebaud;église;STVINE;Aube;10;Grand Est;10214;Magnicourt;;;;Ouvrage Aube 1986;94;95;;;;;48.45148386216217;4.380538370270271;way;442712130;48.45148386216217;4.380538370270271;;;;;;;;;;;PM10001124,PM10005001;;;;;;;;;;;;;;;;;;;;;;[];;;;;;;
FR-10233-M_SEI-NDAMEV1-X;Méry-sur-Seine;église Notre-Dame;Notre-Dame;église;NDAMEV;Aube;10;Grand Est;10233;Méry-sur-Seine;;;;Ouvrage Aube 1986;96;99;;;;;;;;;;;;;;;;;;;;;PM10004985,PM10001212,PM10001211;;;;;;;;;;;;;;;;;;;;;;[];;;;;;;
FR-10237-M_LOU-STLEUU1-X;Mesnil-Saint-Loup;église Saint-Leu;Saint-Leu;église;STLEUU;Aube;10;Grand Est;10237;Mesnil-Saint-Loup;;;;Ouvrage Aube 1986;100;101;;;;;;;;;;;;;;;;;;;;;;;;;;;;;;;;;;;;;;;;;;;[];;;;;;;
FR-10260-MOUSS-STMART1-X;Moussey;église Saint-Martin;Saint-Martin;église;STMART;Aube;10;Grand Est;10260;Moussey;;;;Ouvrage Aube 1986;102;105;;;;;48.214873788888895;4.095614033333334;way;83930099;48.214873788888895;4.095614033333334;;;;;;;;;;;PM10004986,PM10001318;;;;;;;;;;;;;;;;;;;;;;[];;;;;;;
FR-10268-N_SEI-STLAUR1-X;Nogent-sur-Seine;église Saint-Laurent;Saint-Laurent;église;STLAUR;Aube;10;Grand Est;10268;Nogent-sur-Seine;;;;Ouvrage Aube 1986;106;115;;;;;48.49250152727272;3.498819957272727;way;653776404;48.49250152727272;3.498819957272727;;;;;;;;;;;PM10001411,PM10004987,PM10001401;;;;;;;;;;;;;;;;;;;;;;[];;;;;;;
FR-10268-N_SEI-MUNICI1-X;Nogent-sur-Seine;école municipale de musique;Municipale-de-Musique;école;MUNICI;Aube;10;Grand Est;10268;Nogent-sur-Seine;;;;;;;;;;;;;;;;;;;;;;;;;;;;;;;;;;;;;;;;;;;;;;;;;[];;;;;;;
FR-10297-P_MAR-NDAMEV1-X;Pont-Sainte-Marie;église Notre-Dame;Notre-Dame;église;NDAMEV;Aube;10;Grand Est;10297;Pont-Sainte-Marie;;;;Ouvrage Aube 1986;116;119;;;;;48.31812974803921;4.092754303921571;way;68010048;48.31812974803921;4.092754303921571;;;;;;;;;;;PM10001547;;;;;;;;;;;;;;;;;;;;;;[];;;;;;;
FR-10319-R_FER-STMART1-X;Rigny-le-Ferron;église Saint-Martin;Saint-Martin;église;STMART;Aube;10;Grand Est;10319;Rigny-le-Ferron;;;;Ouvrage Aube 1986;130;131;;;;;48.208738183098596;3.6309131971830984;way;304001620;48.208738183098596;3.6309131971830984;;;;;;;;;;;PM10003983,PM10003982;;;;;;;;;;;;;;;;;;;;;;[];;;;;;;
FR-10323-R_SEI-STMART1-X;Romilly-sur-Seine;église Saint-Martin;Saint-Martin;église;STMART;Aube;10;Grand Est;10323;Romilly-sur-Seine;;;;Ouvrage Aube 1986;132;133;;;;;48.51899820;3.72457210;;;;;;;;;;;;;;;PM10004989,PM10001779;;;;;;;;;;;;;;;;;;;;;;[];;;;;;;
FR-10362-SSSAV-STSAVI1-X;Sainte-Savine;église Sainte-Savine;Sainte-Savine;église;STSAVI;Aube;10;Grand Est;10362;Sainte-Savine;;;;Ouvrage Aube 1986;148;149;;;;;48.29465992875;4.0597675975;way;73944408;48.29465992875;4.0597675975;;;;;;;;;;;PM10002156;;;;;;;;;;;;;;;;;;;;;;[];;;;;;;
FR-10342-SSBON-STJBAP1-X;Saint-Jean-de-Bonneval;église Saint-Jean-Baptiste;Saint-Jean-Baptiste;église;STJBAP;Aube;10;Grand Est;10342;Saint-Jean-de-Bonneval;;;;Ouvrage Aube 1986;150;151;;;;;48.17164976;4.04961659;way;491933631;48.17164976;4.04961659;;;;;;;;;;;;;;;;;;;;;;;;;;;;;;;;;[];;;;;;;
FR-10343-SSVIL-STJULI1-X;Saint-Julien-les-Villas;église Saint-Julien;Saint-Julien;église;STJULI;Aube;10;Grand Est;10343;Saint-Julien-les-Villas;;;;Ouvrage Aube 1986;152;143;;;;;;;;;;;;;;;;;;;;;;;;;;;;;;;;;;;;;;;;;;;[];;;;;;;
FR-10350-SSOTH-STMEDA1-X;Saint-Mards-en-Othe;église Saint-Médard;Saint-Médard;église;STMEDA;Aube;10;Grand Est;10350;Saint-Mards-en-Othe;;;;Ouvrage Aube 1986;144;145;;;;;48.17305710126582;3.802867979746834;way;432404227;48.17305710126582;3.802867979746834;;;;;;;;;;;;;;;;;;;;;;;;;;;;;;;;;[];;;;;;;
FR-10351-SSBOS-STMART1-X;Saint-Martin-de-Bossenay;église Saint-Martin;Saint-Martin;église;STMART;Aube;10;Grand Est;10351;Saint-Martin-de-Bossenay;;;;Ouvrage Aube 1986;146;147;;;;;48.44025823116882;3.6824944090909093;way;656569009;48.44025823116882;3.6824944090909093;;;;;;;;;;;;;;;;;;;;;;;;;;;;;;;;;[];;;;;;;
FR-10387-TROYE-STURBA1-X;Troyes;basilique Saint-Urbain;Saint-Urbain;basilique;STURBA;Aube;10;Grand Est;10387;Troyes;;;;Ouvrage Aube 1986;220;225;;;;;48.29803320;4.07576180;;;;;;;;;;;;;;;;;;;;;;;;;;;;;;;;;;;;;[];;;;;;;
FR-10387-TROYE-SSP-PL1-T;Troyes;cathédrale Saint-Pierre & Saint-Paul;Saint-Pierre-&-Saint-Paul;cathédrale;SSP-PL;Aube;10;Grand Est;10387;Troyes;;;G.O.;Ouvrage Aube 1986;192;213;;;;;;;;;;;;;;;;;;;;;PM10004994,PM10002273,PM10002265;;;;;;;;;;;;;;;;;;;;;;[];;;;;;;
FR-10387-TROYE-SSP-PL1-C;Troyes;cathédrale Saint-Pierre & Saint-Paul;Saint-Pierre-&-Saint-Paul;cathédrale;SSP-PL;Aube;10;Grand Est;10387;Troyes;;;O.C.;Ouvrage Aube 1986;214;217;;;;;;;;;;;;;;;;;;;;;PM10004995,PM10002674;;;;;;;;;;;;;;;;;;;;;;[];;;;;;;
FR-10387-TROYE-PRIVE-1-X;Troyes;chapelle du lycée privé église Saint-Joseph;Privé-Église-Saint-Joseph;chapelle du lycee;PRIVE-;Aube;10;Grand Est;10387;Troyes;;;;Ouvrage Aube 1986;160;161;;;;;;;;;;;;;;;;;;;;;;;;;;;;;;;;;;;;;;;;;;;[];;;;;;;
FR-10387-TROYE-NDTREV1-X;Troyes;église Notre-Dame-des-Trévois;Notre-Dame-des-Trévois;église;NDTREV;Aube;10;Grand Est;10387;Troyes;;;;Ouvrage Aube 1986;150;151;;;;;;;;;;;;;;;;;;;;;;;;;;;;;;;;;;;;;;;;;;;[];;;;;;;
FR-10387-TROYE-STMADE1-X;Troyes;église Sainte-Madeleine;Sainte-Madeleine;église;STMADE;Aube;10;Grand Est;10387;Troyes;;;;Ouvrage Aube 1986;162;165;;;;;48.29778460;4.07103600;;;;;;;;;;;;;;;PM10003763,PM10003754,PM10004993;;;;;;;;;;;;;;;;;;;;;;[];;;;;;;
FR-10387-TROYE-STJEAN1-X;Troyes;église Saint-Jean;Saint-Jean;église;STJEAN;Aube;10;Grand Est;10387;Troyes;;;;Ouvrage Aube 1986;152;159;;;;;48.29601450;4.07295420;;;;;;;;;;;;;;;PM10003764,PM10004992,PM10002407;;;;;;;;;;;;;;;;;;;;;;[];;;;;;;
FR-10387-TROYE-STMART1-T;Troyes;église Saint-Martin-ès-Vignes;Saint-Martin-Ès-Vignes;église;STMART;Aube;10;Grand Est;10387;Troyes;;;G.O.;Ouvrage Aube 1986;166;179;;;;;48.30534134666665;4.061455645000001;way;73112447;48.30534134666665;4.061455645000001;;;;;;;;;;;PM10004991,PM10002467;;;;;;;;;;;;;;;;;;;;;;[];;;;;;;
FR-10387-TROYE-STMART1-C;Troyes;église Saint-Martin-ès-Vignes;Saint-Martin-Ès-Vignes;église;STMART;Aube;10;Grand Est;10387;Troyes;;;O.C.;Ouvrage Aube 1986;180;181;;;;;48.30534134666665;4.061455645000001;way;73112447;48.30534134666665;4.061455645000001;;;;;;;;;;;;;;;;;;;;;;;;;;;;;;;;;[];;;;;;;
FR-10387-TROYE-STNICO1-X;Troyes;église Saint-Nicolas;Saint-Nicolas;église;STNICO;Aube;10;Grand Est;10387;Troyes;;;;Ouvrage Aube 1986;182;187;;;;;48.301545680000004;4.0755736;way;73135183;48.301545680000004;4.0755736;;;;;;;;;;;PM10004998,PM10002677;;;;;;;;;;;;;;;;;;;;;;[];;;;;;;
FR-10387-TROYE-STNIZI1-X;Troyes;église Saint-Nizier;Saint-Nizier;église;STNIZI;Aube;10;Grand Est;10387;Troyes;;;;Ouvrage Aube 1986;188;189;;;;;48.3018916643678;4.083409375862068;way;73124952;48.3018916643678;4.083409375862068;;;;;;;;;;;PM10002679,PM10004997;;;;;;;;;;;;;;;;;;;;;;[];;;;;;;
FR-10387-TROYE-STPANT1-X;Troyes;église Saint-Pantaléon;Saint-Pantaléon;église;STPANT;Aube;10;Grand Est;10387;Troyes;;;;Ouvrage Aube 1986;190;191;;;;;48.2946148;4.071690439999999;way;73114598;48.2946148;4.071690439999999;;;;;;;;;;;;;;;;;;;;;;;;;;;;;;;;;[];;;;;;;
FR-10387-TROYE-STREMY1-X;Troyes;église Saint-Rémy;Saint-Rémy;église;STREMY;Aube;10;Grand Est;10387;Troyes;;;;Ouvrage Aube 1986;218;219;;;;;48.299275695535734;4.075352535714285;way;48121725;48.299275695535734;4.075352535714285;;;;;;;;;;;PM10004996,PM10003798;;;;;;;;;;;;;;;;;;;;;;[];;;;;;;
FR-10401-V_BAR-STPIER1-X;Vendeuvre-sur-Barse;église Saint-Pierre;Saint-Pierre;église;STPIER;Aube;10;Grand Est;10401;Vendeuvre-sur-Barse;;;;Ouvrage Aube 1986;226;227;;;;;48.23521097444446;4.465365822222222;way;432927053;48.23521097444446;4.465365822222222;;;;;;;;;;;;;;;;;;;;;;;;;;;;;;;;;[];;;;;;;
FR-10420-V_GRA-SSP-PL1-X;Villenauxe-la-Grande;église Saint-Pierre & Saint-Paul;Saint-Pierre-&-Saint-Paul;église;SSP-PL;Aube;10;Grand Est;10420;Villenauxe-la-Grande;;;;Ouvrage Aube 1986;228;229;;;;;;;;;;;;;;;;;;;;;PM10004999,PM10004072;;;;;;;;;;;;;;;;;;;;;;[];;;;;;;
FR-10326-R_HOP-NDAMEV1-X;Rosnay-l'Hôpital;église Notre-Dame;Notre-Dame;église;NDAMEV;Aube;10;Grand Est;10326;Rosnay-l'Hôpital;;;;Ouvrage Aube 1986;134;149;;;;;;;;;;;;;;;;;;;;;PM10004990,PM10001794;;;;;;;;;;;;;;;;;;;;;;[];;;;;;;
FR-10317-RICEY-STJBAP1-X;Les Riceys;église Saint-Jean-Baptiste;Saint-Jean-Baptiste;église;STJBAP;Aube;10;Grand Est;10317;Les Riceys;Ricey-Haute-Rive;;;Ouvrage Aube 1986;126;129;;;;;47.99379100;4.37000410;;;;;;;;;;;;;;;PM10004971,PM10001729,PM10005000;;;;;;;;;;;;;;;;;;;;;;[];;;;;;;
FR-10317-RICEY-STPIER1-X;Les Riceys;église Saint-Pierre;Saint-Pierre;église;STPIER;Aube;10;Grand Est;10317;Les Riceys;Ricey-Bas;;;Ouvrage Aube 1986;120;125;;;;;;;;;;;;;;;;;;;;;PM10004988,PM10001718,PM10001719;;;;;;;;;;;;;;;;;;;;;;[];;;;;;;
FR-11069-CARCA-SSN-CE1-T;Carcassonne;Basilique Saint-Nazaire & Saint-Celse;Saint-Nazaire-&-Saint-Celse;basilique;SSN-CE;Aude;11;Occitanie;11069;Carcassonne;;;G.O.;Orgues en Languedoc-Rousillon -- tome 1;31;37;;;;;;;;;;;;;;;;;;;;;PM11002373,PM11000707,PM11000708;;;;;;;;;;;;;;;;;;;;;;[];;;;;;;
FR-11069-CARCA-STMICH1-T;Carcassonne;Cathédrale Saint-Michel;Saint-Michel;cathédrale;STMICH;Aude;11;Occitanie;11069;Carcassonne;;;G.O.;Orgues en Languedoc-Rousillon -- tome 1;19;27;;;;;43.21117830;2.35106180;;;;;;;;;;;;;;;PM11002371,PM11002372;;;;;;;;;;;;;;;;;;;;;;[];;;;;;;
FR-11069-CARCA-STMICH1-C;Carcassonne;Cathédrale Saint-Michel;Saint-Michel;cathédrale;STMICH;Aude;11;Occitanie;11069;Carcassonne;;;O.C.;Orgues en Languedoc-Rousillon -- tome 1;28;30;;;;;43.21117830;2.35106180;;;;;;;;;;;;;;;;;;;;;;;;;;;;;;;;;;;;;[];;;;;;;
FR-11069-CARCA-STSTAN1-X;Carcassonne;École Saint-Stanislas;Saint-Stanislas;école;STSTAN;Aude;11;Occitanie;11069;Carcassonne;;;;Orgues en Languedoc-Rousillon -- tome 1;53;54;;;;;;;;;;;;;;;;;;;;;;;;;;;;;;;;;;;;;;;;;;;[];;;;;;;
FR-11069-CARCA-SCOEUR1-X;Carcassonne;église du Sacré-Cœur;du-Sacré-Cœur;église;SCOEUR;Aude;11;Occitanie;11069;Carcassonne;;;;Orgues en Languedoc-Rousillon -- tome 1;44;46;;;;;43.220883475;2.3427497666666666;way;61919254;43.220883475;2.3427497666666666;;;;;;;;;;;;;;;;;;;;;;;;;;;;;;;;;[];;;;;;;
FR-11069-CARCA-NDABBA1-X;Carcassonne;église Notre-Dame de l'Abbaye;Notre-Dame-de-l'Abbaye;église;NDABBA;Aude;11;Occitanie;11069;Carcassonne;;;;Orgues en Languedoc-Rousillon -- tome 1;47;49;;;;;43.20924300;2.36638460;;;;;;;;;;;;;;;;;;;;;;;;;;;;;;;;;;;;;[];;;;;;;
FR-11069-CARCA-STGIME1-X;Carcassonne;église Saint-Gimer;Saint-Gimer;église;STGIME;Aude;11;Occitanie;11069;Carcassonne;;;;Orgues en Languedoc-Rousillon -- tome 1;50;52;;;;;43.20722295384615;2.3619691384615384;way;27181953;43.20722295384615;2.3619691384615384;;;;;;;;;;;;;;;;;;;;;;;;;;;;;;;;;[];;;;;;;
FR-11069-CARCA-STVINC1-T;Carcassonne;église Saint-Vincent;Saint-Vincent;église;STVINC;Aude;11;Occitanie;11069;Carcassonne;;;G.O.;Orgues en Languedoc-Rousillon -- tome 1;38;41;;;;;43.21482731904762;2.3508675761904763;way;68340742;43.21482731904762;2.3508675761904763;;;;;;;;;;;PM11002374,PM11000730,PM11000760;;;;;;;;;;;;;;;;;;;;;;[];;;;;;;
FR-11069-CARCA-STVINC1-C;Carcassonne;église Saint-Vincent;Saint-Vincent;église;STVINC;Aude;11;Occitanie;11069;Carcassonne;;;O.C.;Orgues en Languedoc-Rousillon -- tome 1;42;43;;;;;43.21482731904762;2.3508675761904763;way;68340742;43.21482731904762;2.3508675761904763;;;;;;;;;;;;;;;;;;;;;;;;;;;;;;;;;[];;;;;;;
FR-11076-CSLNA-STMICH1-T;Castelnaudary;Collégiale Saint-Michel;Saint-Michel;collégiale;STMICH;Aude;11;Occitanie;11076;Castelnaudary;;;G.O.;Orgues en Languedoc-Rousillon -- tome 1;55;59;;;;;43.31697582181818;1.9568543545454546;way;91478142;43.31697582181818;1.9568543545454546;;;;;;;;;;;PM11002375,PM11000803;;;;;;;;;;;;;;;;;;;;;;[];;;;;;;
FR-11076-CSLNA-STMICH1-C;Castelnaudary;Collégiale Saint-Michel;Saint-Michel;collégiale;STMICH;Aude;11;Occitanie;11076;Castelnaudary;;;O.C.;Orgues en Languedoc-Rousillon -- tome 1;60;62;;;;;43.31697582181818;1.9568543545454546;way;91478142;43.31697582181818;1.9568543545454546;;;;;;;;;;;PM11002376,PM11002095;;;;;;;;;;;;;;;;;;;;;;[];;;;;;;
FR-11076-CSLNA-STFRAN1-X;Castelnaudary;église Saint-François;Saint-François;église;STFRAN;Aude;11;Occitanie;11076;Castelnaudary;;;;Orgues en Languedoc-Rousillon -- tome 1;63;64;;;;;43.31850800;1.95371440;;;;;;;;;;;;;;;;;;;;;;;;;;;;;;;;;;;;;[];;;;;;;
FR-11076-CSLNA-STJBAP1-X;Castelnaudary;église Saint-Jean Baptiste;Saint-Jean-Baptiste;église;STJBAP;Aude;11;Occitanie;11076;Castelnaudary;;;;Orgues en Languedoc-Rousillon -- tome 1;65;67;;;;;;;;;;;;;;;;;;;;;;;;;;;;;;;;;;;;;;;;;;;[];;;;;;;
FR-11081-C_MIN-STGENE1-X;Caunes-Minervois;église Saint-Genès;Saint-Genès;église;STGENE;Aude;11;Occitanie;11081;Caunes-Minervois;;;;Orgues en Languedoc-Rousillon -- tome 1;68;70;;;;;;;;;;;;;;;;;;;;;;;;;;;;;;;;;;;;;;;;;;;[];;;;;;;
FR-11091-CHALA-SSP-PL1-X;Chalabre;église Saint-Pierre & Saint-Paul;Saint-Pierre-&-Saint-Paul;église;SSP-PL;Aude;11;Occitanie;11091;Chalabre;;;;Orgues en Languedoc-Rousillon -- tome 1;71;73;;;;;;;;;;;;;;;;;;;;;;;;;;;;;;;;;;;;;;;;;;;[];;;;;;;
FR-11099-C_ORB-STMICH1-X;Conques-sur-Orbiel;église Saint-Michel;Saint-Michel;église;STMICH;Aude;11;Occitanie;11099;Conques-sur-Orbiel;;;;Orgues en Languedoc-Rousillon -- tome 1;74;76;;;;;43.26863060;2.40045680;;;;;;;;;;;;;;;;;;;;;;;;;;;;;;;;;;;;;[];;;;;;;
